Name;Artwork type;Artist name;Latitude;Longitude
"""Le Totem""";;Guy de Rougemont;45.7637725;4.8740508
Monument de Vercingétorix;;;47.5385491;4.4905888
Statue équestre de Louis XIV;statue;;43.6112535;3.870765
Statue équestre de Louis XIV;statue;François-Frédéric Lemot;45.7578371;4.8321925
Le Grand M;sculpture;Christophe et François Morellet;43.5900478;3.8563552
Crebillon;bust;;47.314963;5.0297102
Les tulipes de Shangri-La;sculpture;Yayoi Kusama;50.6386768;3.0744732
Écho;sculpture;Jean-Yves Brélivet;48.1016752;-1.642181
;graffiti;C215;48.8554206;2.3183101
Ours blanc;statue;Henry Martinet;47.3238834;5.0331909
Statue du Général Jean Rapp;sculpture;Frédéric Auguste Bartholdi;48.0770127;7.354183
Statue d'Armand Joseph Bruat;sculpture;Frédéric Auguste Bartholdi;48.0755785;7.3527612
D-Day Juno Beach Memorial;sculpture;;49.3366879;-0.4615786
Veilleur de pierre;sculpture;Georges Salendre;45.7582517;4.8332712
La Victoire de Samothrace;statue;;43.60764;3.8957055
Le Pèlerin de Compostelle;statue;Bigata;44.7656529;-0.6191337
Martin Kingfisher;streetart;Abys;48.5910453;7.7236894
Statue de Rouget de Lisle;;;48.7642444;2.4060748
Jean Jaurès;statue;Gabriel Pech;43.6099341;3.8777589
Daphné;sculpture;;43.3196423;1.9529372
Fontaine Wallace;;Charles-Auguste Lebourg;43.5848773;1.4534512
;sculpture;;43.3059574;5.3934592
L'Éternité;sculpture;;46.9051238;6.3514394
Cobbers Australian Memorial;;Peter Corlett;50.6181732;2.8359377
Statue de Jean-Baptiste de la Quintinie;;;48.7990926;2.1213733
Eco vs Ego;mural;Reskate;45.1920562;5.7167561
Statue du Marquis Jouffroy d'Abbans;sculpture;Pascal Coupot;47.2398176;6.0202868
Victor Hugo;statue;Ousmane Sow;47.2362017;6.0221599
Le Minotaure;statue;Jens Boettcher;47.2420603;6.0246491
Vierge;;;46.9377446;6.3239149
Horloge astronomique;architecture;Auguste-Lucien Vérité;47.2336365;6.0307815
Vierge;statue;;46.9667765;6.402313
;graffiti;;48.8707709;2.1372773
;sculpture;;43.7579878;5.8877412
Statue de Ludwik Lejzer Zamenhof;;;48.764609;2.4101475
Turenne enfant;sculpture;Lucien-Benoit Hercule;48.862366;2.3645188
Vache Rouge;statue;;50.9666098;2.4324568
Monument Pasteur;sculpture;;47.0944242;5.4990118
Mémorial de la déportation;sculpture;;48.3849492;-4.4826239
Statue de la Sainte-Famille;;;44.459802;4.8474202
Statue d'André Malraux;statue;Bernard Paul;46.8947934;6.3640149
Danse de la Fontaine Émergente;;;48.8391823;2.370612
;sculpture;;43.6014909;1.447634
L'Envol de la Liberté;mosaic;Jean Bazaine;48.2864218;6.9466144
Le Monstre;statue;Xavier Veilhan;47.3936395;0.6806024
L'abribus;;Philippe Starck;43.8368201;4.3657098
Monument aux Morts de 1870;;;46.5793157;0.3401879
Vierge Marie;statue;;46.2570291;4.9142059
Statue de la Liberté (maquette répliquée);statue;Auguste Bartholdi;48.8500236;2.2797012
Jeanne D'arc;statue;;44.8487485;-0.5753271
Statue de la Liberté;sculpture;Guillaume Roche;48.1084062;7.3636331
;sculpture;;43.7195247;6.9786504
Table d'orientation;;;49.2141832;2.5094045
Statue de Saint-Michel;statue;Emmanuel Frémiet;48.6360268;-1.5114124
;fontaine Wallace;Charles-Auguste Lebourg;44.8504902;-0.5757327
;fontaine Wallace;Charles-Auguste Lebourg;44.8491294;-0.5729311
;fontaine Wallace;Charles-Auguste Lebourg;44.841895;-0.5723094
Fontaine Wallace;;Charles-Auguste Lebourg;44.8323145;-0.5727242
;Fontaine Wallace;Charles-Auguste Lebourg;44.8405329;-0.5595856
Fontaine Wallace;fontaine Wallace;Charles-Auguste Lebourg;44.8381124;-0.5800821
Monument Gutenberg;statue;;48.5812346;7.748534
La Tour des rêves I;sculpture;Berto Lardera;50.6294985;3.1264613
Statue de Nimeño 2;statue;;43.8341134;4.3599922
Statue;;;45.9448392;-0.5184345
Statue de la Liberté;statue;;46.5856963;0.3428935
Galerie Unbekandt;;;49.7594888;0.3680825
Arbre d'Or;;;48.0012275;-2.2862787
Vacheval en fers à cheval;;;43.6459943;3.8103418
Monsters;streetart;AlëxOne;48.5834128;7.7352228
Tongs Out;streetart;Williann;48.583395;7.7349996
Fontaine Wallace;fontaine Wallace;Charles-Auguste Lebourg;48.8561113;2.340643
Statue;statue;;49.5867961;3.0537703
Victorien Sardou;statue;;43.5773212;7.0192148
;statue;;48.6947786;2.4916159
La ville d'Arbois à Pasteur;sculpture;Horace Daillion;46.9040663;5.7707832
Le Cyclop;sculpture;Jean Tinguely;48.4149201;2.4568472
Colonne de Tonneaux;;;46.9025727;5.7759903
Statue;;;46.905277;5.7734565
Fontaine Wallace;;Charles-Auguste Lebourg;48.8844757;2.3382719
Fontaine Wallace;;Charles-Auguste Lebourg;48.8860106;2.3414517
La Grand'Goule;;;46.5813213;0.3395541
Le Lion;sculpture;Xavier Veilhan;44.8402023;-0.5601938
Délos;sculpture;Georges Braque;48.284685;6.9490605
Statue de la Vierge;statue;;43.6108002;1.3414392
Skulpturenpark Burkheim;;;48.1014158;7.5889791
;statue;;43.5425456;1.5259514
Fontaine Wallace;;Charles-Auguste Lebourg;48.8805363;2.3247765
;Statue_de_Napoléon;;48.3883327;2.9595038
Diable Rouge;sculpture;Guillaume Roche;48.0941568;7.3612948
Charles-François Daubigny;statue;;49.0716774;2.1765525
Les tricoteuses;sculpture;Toutain;44.1053668;1.0841881
La Force;;;43.8872412;-0.504121
Nimeno II;;;43.8867066;-0.5032724
Condorcet;;;43.8897988;-0.5033407
Zeus;;;43.8924078;-0.498453
L'offrande;;;43.8916758;-0.5017313
Fontaine Wallace;fontaine Wallace;Charles-Auguste Lebourg;48.881141;2.2370052
ND du Sacré-coeur de Jésus;;;45.825678;4.8299628
Guillaume Tell;statue;;47.7464238;7.3392115
Gustave Adolphe Hirn;sculpture;F.A. Bartholdi;48.0734677;7.3548399
Statue de Frédéric Auguste Bartholdi;sculpture;Hubert Louis-Noel - Antoine Rubin;48.0704895;7.3531423
Cerf. biche et faon au repos;statue;Georges Gardet;48.7675955;2.3026392
Cerf. biche et faon courant;statue;Georges Gardet;48.7675178;2.30213
Cadran Solaire de Dali;;Salvador Dalí;48.8513487;2.3459334
Fontaine Wallace;fontaine Wallace;Charles-Auguste Lebourg;50.6327212;3.062612
Monument à François 1er;;Antoine Etex;45.6933354;-0.3252694
PA1372 gros noir jaune boulangerie;;;48.8958661;2.3466194
Homeless;graffiti;C215;43.4923273;-1.473707
Jeanne d'Arc;sculpture;;50.2145381;1.6284513
Statue de Rouget de Lisle;statue;Frédéric-Auguste Bartholdi;46.6731951;5.5570832
;mural;;45.1736089;5.7275353
Calme Hellenique;;;43.8896563;-0.5011638
Vierge blanche;;;45.1430011;4.6639439
Statue d'Alfred de Vigny;;;47.129345;0.9988406
Sphinx;statue;Jean-Marc Bonnard;45.4312851;4.3878183
;sculpture;;45.4425;4.4005565
Statue de la Vierge;;;43.7990369;2.6179535
;statue;;44.4367761;2.0318751
Vierge;statue;;44.4542818;4.8208202
L'Homme Oiseau;sculpture;Albert Marchais;43.5218391;4.1251016
Statue de Notre-Dame;;;44.9595556;3.5595996
Notre-Dame de Monton;sculpture;;45.6795682;3.1576806
Napoléon;statue;Armand Le Véel;49.6430786;-1.624134
Statue de Marie Harel;statue;;48.9280665;0.1975974
Fontaine Wallace;fontaine Wallace;;46.566247;3.3351536
PA1264 dans le musée en herbe;;;48.8600524;2.3422352
Ancienne Ruche;;;48.8624633;2.3483294
La Madonne;statue;;46.6004132;5.5110494
Eurydice mordue par un serpent;statue;Charles-François Leboeuf;48.8669158;2.3394407
Statue de la fontaine Saint-Pierre;;;46.9287734;6.3516558
Invader drapeau;;;48.8643625;2.3475928
;sculpture;;48.8926034;2.195735
PA156;;;48.859895;2.3541682
PA956 au dessus du bistrot;;;48.8668763;2.3534143
PA193 rouge et vert;;;48.8652805;2.3564871
maison a colombages;;;48.864718;2.3568299
PA491 pê désactivé;;;48.8619486;2.3569088
Domaine Guillevic;;;48.0785277;6.0526721
;graffiti;C215;48.8077481;2.333336
Arc de triomphe pour Figurois et Figurennes;sculpture;Erik Dietman;48.0986984;-1.648407
Statue équestre de Jeanne d'Arc;statue;Antonin Mercié;43.6086083;1.4459115
Fresque Maison de l'Étudiant;mural_painting;Liken;43.3135116;-0.3670706
Fontaine Wallace;fontaine Wallace;Charles-Auguste Lebourg;43.3047952;5.3956172
Fontaine Wallace;fontaine Wallace;Charles-Auguste Lebourg;43.2805397;5.3687739
Fontaine Wallace;fontaine Wallace;Charles-Auguste Lebourg;43.2950585;5.3863584
Square des Droits de l'Enfant;statue;;43.647333;0.5906186
Statue du Volontaire de 1792;sculpture;;48.0173181;6.5897047
Statue de Louis Pasteur;statue;Alphonse Cordonnier;50.6279692;3.0613167
Statue de Léon Trulin;statue;Edgar Boutry;50.6375013;3.0657009
Galerie Kamel Mennour;;;48.8553093;2.3400644
;mosaic;Invader;45.7771857;3.0893955
;mosaic;Invader;45.7784167;3.0872522
;mosaic;Invader;45.777106;3.0860983
;sculpture;;43.296982;5.3813277
;sculpture;;43.301114;5.3859447
;sculpture;;43.3010416;5.3860098
;sculpture;;43.2957035;5.3806564
;sculpture;;43.2990278;5.3881216
;sculpture;;43.3010217;5.3877307
;sculpture;;43.3005693;5.3847275
;sculpture;;43.2960164;5.3809818
;sculpture;;43.3005074;5.3816945
;sculpture;;43.3026422;5.3925337
;sculpture;;43.2998968;5.3786444
;sculpture;;43.2963281;5.3868222
;sculpture;;43.2922906;5.3773434
;sculpture;;43.2986586;5.3857721
;sculpture;;43.2987568;5.3852364
;sculpture;;43.2984524;5.3856937
;sculpture;;43.2957575;5.3807113
Statue de Saint-Éloi;;;45.0393858;5.924189
;sculpture;;43.2969628;5.384046
;sculpture;;43.2982204;5.387734
;sculpture;;43.3003422;5.384222
;sculpture;;43.2982836;5.3877616
;mural;;47.9511932;1.8760004
Le Chat Perché;sculpture;;48.8898632;2.2108034
;sculpture;;48.8753232;2.3164052
;sculpture;;43.2955269;5.3874753
;sculpture;;43.2949489;5.3941186
;sculpture;;43.2931256;5.3890996
;sculpture;;43.2929781;5.3928561
;sculpture;;43.2893459;5.3884288
;sculpture;;43.292314;5.383145
;sculpture;;43.2935064;5.3829381
;sculpture;;43.2882766;5.3844005
;sculpture;;43.2935862;5.3828959
;sculpture;;43.2885656;5.3853692
;sculpture;;43.2921931;5.3834515
;sculpture;;43.2890923;5.3839839
;sculpture;;48.8625656;2.3298422
;sculpture;;48.8633395;2.3294271
;sculpture;;48.8631885;2.3287446
;sculpture;;48.8627863;2.3299951
;sculpture;;48.8632901;2.3292945
;sculpture;;48.8631978;2.3288783
;sculpture;;45.1653996;5.6289183
;mural;Jokolor et ses apprentis peintres;44.5616978;2.2510305
;mural;Romain Froquet;44.5634777;2.2509684
;mural;Seb Toussain;44.5631423;2.2415206
;mural;Lady M;44.5635623;2.2510448
Écrivains du XXe siècle (Hugues Le Roux. La Villehervé. Laurent-Cernières);sculpture;René Mérelle;49.4942802;0.1030583
;Horloge;;47.8862113;7.2284681
;fontaine Wallace;Charles-Auguste Lebourg;44.8483642;-0.5789228
;sculpture;;47.3883209;0.6578202
Statue du Duc Decazes;statue;;44.5564396;2.2569967
;mural;Sifat;44.5561435;2.2646948
Statue du Mineur;;;44.5271011;2.2461362
Chevreuil;sculpture;;42.5119094;2.0505882
L'Oiseau Phénix;;;47.8863509;-2.7334803
;rostral column;;48.8655646;2.319901
;rostral column;;48.8665695;2.3215417
;rostral column;;48.8660582;2.320262
;rostral column;;48.865018;2.3220832
;rostral column;;48.866371;2.3221632
;rostral column;;48.8643839;2.320712
;rostral column;;48.8652707;2.3222706
Le Centaure;sculpture;César;48.8519229;2.3295722
André Bouéry;statue;;43.0145591;0.802726
Statue de Sainte Germaine;statue;;44.6792927;3.8426664
Fontaine Wallace;fontaine Wallace;Charles-Auguste Lebourg;47.086393;2.3967361
Don Quichotte;;;47.3864517;0.723333
Saint-Christophe;statue;;43.8618842;4.6940573
Rooble;graffiti;Les frères coulures;44.8454495;-0.556206
;streetart;;48.5080273;-2.7531014
Fontaine Wallace;fontaine Wallace;Charles-Auguste Lebourg;48.8316177;2.3780517
Fontaine Wallace;;Charles-Auguste Lebourg;48.8649132;2.4052002
Sculpture of Pascal Paoli;;;42.6343061;8.938333
;mural;;44.8233255;-0.5504521
Lionel Postal;;;43.3256441;2.5302639
Untitled;mural;Cryptik;48.8319987;2.3603119
Ours en bois;sculpture;;44.5285453;2.0565894
;fountain;Jean-Claude Attiret;47.089863;5.4890099
Hector Berlioz;sculpture;;45.188752;5.7248516
Résille;;;45.8956488;2.883506
Statue André Messager;sculpture;;46.3416083;2.6055177
;statue;;43.9464765;4.8073516
;statue;;43.9494399;4.8151992
;statue;;43.9496547;4.8080551
;statue;;43.9505481;4.8143035
;statue;;43.9483239;4.8059695
;statue;;43.9468475;4.8075505
;statue;;43.9484414;4.8038889
;statue;;43.9466184;4.8034093
;statue;;43.9481568;4.8054632
;statue;;43.9518898;4.8050739
;statue;;43.9499096;4.8075238
;painting;"Manon Pochy;Dominique Durand";43.9464623;4.8063537
Notre Dame des enfants;statue;;43.9465589;4.8089194
;statue;;43.9487242;4.8062511
;statue;;43.9482516;4.8122791
;statue;;43.9460928;4.8119074
Vins des cotes du Rhône;statue;Francis Lievore;43.9465961;4.8032915
;sculpture;Tetsuo Harada;48.8925446;2.2065017
;statue;;45.7688121;4.8349199
Le Petit Vigneron;sculpture;F.A. Bartholdi;48.0745748;7.3593441
;graffiti;;50.6237186;3.0931056
Cavallo. San Marco II;sculpture;Ludovico de Luigi;43.2955657;5.3830102
Le temps qui passe;;;48.4454022;0.0578664
;sculpture;;48.8328301;2.2313618
;sculpture;;48.8843473;2.2890956
Fantasia;sculpture;;48.8689675;2.7705024
;sculpture;;48.8753802;2.7808288
Aux enfants morts pour la France;;;46.5830513;0.3361822
La pierre dressée;;;45.1684721;5.7554595
Héraklès archer;sculpture;Antoine Bourdelle;43.6078596;1.4279176
Départ - Les fresques du parcours Rimbaud;mural;2SHY;49.7729196;4.7315705
Maison des métiers d'art;;;45.2275536;6.7407545
;sculpture;Jean-François Briant;48.8448628;2.3887984
Baleine Bleue;sculpture;;48.8447187;2.387511
Monument du 45e Parallèle;sculpture;;45.0007726;4.872846
Chaîne de la Solidarité;;Marco Slinckaert;50.6230757;3.0538674
Le 48e Mobile;statue;Blaise;50.6451173;3.0504421
Statue de Jeanne d'Arc;statue;Paul Dubois;49.2536349;4.0323039
Le Festin des Lions;sculpture;Alfred Jacquemart;48.8436556;2.3554346
Le lion. gardien du Jardin des plantes;sculpture;Alfred Jacquemart;48.8436851;2.3555129
Street art;mural;Jacques Salvignol;50.722601;1.605005
Rhinocéros attaqué par un tigre;sculpture;Auguste Caïn;48.8651981;2.3269895
Lion et lionne se disputant un sanglier;sculpture;Auguste Caïn;48.8651043;2.3272774
La Fontaine des Coeurs;;;44.0339801;4.9911742
Statue de Althen;;;44.0048869;4.9572812
;sculpture;;48.8442139;2.3566261
La Science;sculpture;Eugène Guillaume;48.842251;2.3566614
;sculpture;;48.8434245;2.3636278
Guy-Crescent Fagon;sculpture;;48.8420836;2.3567595
Geoffroy Saint-Hilaire;sculpture;;48.8422052;2.3566882
Gay-Lussac;sculpture;;48.8424524;2.3565434
;statue;;48.8435389;2.3635547
Lamarck;sculpture;;48.8422879;2.3566398
Cuvier;sculpture;;48.8445023;2.3569322
Georges Cuvier;sculpture;;48.8421659;2.3567113
Jussieu;sculpture;;48.8423745;2.356589
Alexandre Brongniart;sculpture;;48.8423314;2.3566143
Premier Artiste;sculpture;Paul Richer;48.8432543;2.3626994
Théodore Monod;sculpture;;48.8433086;2.3562446
Buffon;sculpture;;48.8421274;2.3567338
Guy de la Brosse;sculpture;;48.8420448;2.3567823
René-Just Haüy;sculpture;;48.8424163;2.3565645
Fresque de la Solidarite;;;43.9214881;5.0475478
o8av1s;sculpture;Alain Clément;48.1089734;-1.7079091
Dame Océane;sculpture;;44.7642742;-1.1500816
Édith Piaf 1915 1963;statue;Lisbeth Delisle;48.8648078;2.4053362
Fontaine. Place des Grès;sculpture;Daniel Milhaud;48.8589666;2.4059365
;statue;;49.102906;6.157941
;statue;;49.1030015;6.1581409
Vénus de Canova;statue;Canova;46.6778839;5.5549555
Statue de Tourny;statue;;44.8451038;-0.5779465
Sculpture;;;45.7123578;4.8061323
La Fontaine aux Cygnes;sculpture;Marcel Loyau;48.8434018;2.2461482
;statue;;48.447229;1.487461
La Garonne;sculpture;Antoine Coysevox;48.8053109;2.1199262
La Dordogne;sculpture;Antoine Coysevox;48.8051412;2.1198196
Ernest Meissonier;sculpture;Antonin Mercié;48.9281977;2.0311883
Notre-Dame de la Libération;;;47.2196067;6.0513425
Les sentinelles de la mémoire;;Jorge Soler;47.2440108;6.0168272
;sculpture;;48.8624727;2.3340461
;sculpture;;48.8622674;2.3333107
Harmonie;sculpture;Volti;48.8654667;2.3566228
Pyramide Inversée;architecture;Ieoh Ming Pei;48.8614375;2.3341222
;sculpture;;48.8659664;2.3555977
Gallerie Graffigny;;;48.67027;6.146183
;statue;;45.0684953;4.830028
Ligne indéterminé;sculpture;Bernar Venet;48.5943198;7.758263
Structures astronomiques;sculpture;Jean-Michel Ansel;47.2020747;-1.5773111
Statue Jeanne d'Arc;;;49.4176607;2.8254129
D'abord continuer. ensuite commencer;mural;Anne-Marie Latremolière;48.8491443;2.4742461
Les Anneaux;sculpture;"Daniel Buren;Patrick Bouchain";47.2027636;-1.5723991
Fernandel;sculpture;;43.2951321;5.3909021
;sculpture;;49.1114955;7.0624955
Johannes Nepomuk;statue;;48.997586;7.32014
Hommage à Confucius;statue;Alain Jacquet;43.6309171;3.8611014
La constellation humaine;;Chen Zhen;43.6202513;3.8181811
;sculpture;;48.8477402;2.2409384
;sculpture;;48.846944;2.2387919
Statue de Jeanne d'Arc;statue;;48.5844743;7.7702719
;sculpture;;48.5598194;2.7142824
;sculpture;;48.559964;2.7160535
;sculpture;;48.5598063;2.7140875
;sculpture;;48.5599834;2.7162388
"""Non Violence""";;;49.1978737;-0.3843624
;sculpture;;48.8287786;-0.3832088
Pierre Terrail seigneur de Bayard;sculpture;;45.1930184;5.7284874
Manutea;sculpture;;45.0017974;-1.1964391
;sculpture;;48.8412106;2.3876922
Les Mulhousiens;mural;Fabio Rieti;47.7476628;7.3340983
La petite sirène;sculpture;Noe¨lle Guibert;48.6076106;-4.5090334
Hommage à Sisyphe;sculpture;Mike Sporgis & Laurent Yeonan;48.6081174;-4.5053631
À Perraud;sculpture;Max Claudet;46.6762903;5.5530613
Statues;statue;;43.9390077;6.1951028
Édicule Guimard;;Hector Guimard;48.8797125;2.3548197
Pierre Romaine;sculpture;;43.3840274;-1.3051464
Statues lyriques;statue;Injalbert;44.1363401;4.8087457
;sculpture;;47.7433882;7.3423336
Sur la trace des Vikings;;;49.3212715;1.1017636
Intérieur-Extérieur (Mondineu Denis);sculpture;Denis Mondineu;48.782319;2.0443725
La Perspective (Marta Pan);;;48.7810609;2.0458513
Le Temps. sculpture linéaire (Mondineu Denis);;;48.7881491;2.0441055
Sculpture de Sotor José;;;48.7860473;2.0451319
Grande Girouette (Subira-Puig Jose);;;48.78356;2.0526318
Le repas des Géants (Schultze Klaus);;Klaus Schultze;48.7842579;2.0487365
Paul Claudel (Etienne);;;48.7789695;2.0412845
Eolienne;sculpture;Van Thienen Marcel;48.7818113;2.0523825
Avenue de la République;;Hector Guimard;48.8631903;2.3859426
Galerie Openspace;;;48.8646033;2.3710055
;sculpture;;48.743155;2.764579
Ikaria;sculpture;Igor Mitoraj;48.8952959;2.2369998
Colosse;sculpture;Igor Mitoraj;48.8949381;2.2378428
Statue de Jeanne d'Arc;sculpture;;46.1658654;4.3465826
Gallery of C14/Hapax;;;48.8633284;2.3565463
L'action Enchaînée (A. Maillol);sculpture;;43.9549099;6.8933167
Le Pendule;sculpture;Roman Signer;47.1937181;-1.5858128
;sculpture;;48.4195836;2.7250601
Sainte-Thérèse;statue;;47.1482796;-1.5309058
Exposition peintures;;;47.463076;3.255844
Le Pouce de César;sculpture;César;43.2502632;5.389107
Domaine Universitaire;sculpture;Gérard Ifert;45.1870508;5.7569834
La Cornue;sculpture;Alexander Calder;45.191546;5.7715516
Structure oblique;sculpture;Jean-Claude Barrère;45.1921925;5.7601068
La Vierge Dorée;sculpture;;43.3021132;5.3835707
Statue de David;statue;;43.2618635;5.3747365
;sculpture;;43.2902932;5.3778905
Monument aux morts de l'Armée d'Orient et des terres lointaines;sculpture;;43.2860127;5.35048
Vierge de Vernus;;;44.5164921;2.7808803
Eugène Viala - Peintre Poëte;statue;Marc Robert;44.1823776;2.7892438
;statue;Auguste Carli;43.2891812;5.3666052
;sculpture;;46.0561185;6.5800108
Ceci n’est pas une mappemonde !;sculpture;Éric Fonteneau;47.2511439;-1.6071488
Claude Gay;mural;;43.539357;6.462975
Atelier de Ridha Dhib;;;48.8632716;2.4092517
;sculpture;;43.2963826;5.3802724
Statue de Jean-Francois Millet;;;49.6747892;-1.8010074
Hommage à Picasso Horizon;;;45.4208556;4.3952766
Chorten Goliath;;;48.8196039;7.4626566
Chorten La Porte;;;48.8244035;7.4675936
Chorten Le Casque;;;48.8144597;7.4607089
Chorten Le Masque;;;48.8197919;7.4573795
Statue de Mahé de La Bourdonnais;statue;;48.6462122;-2.0236223
Gorodka;;;44.8569732;1.2348632
"Totem ""Armor""";sculpture;Patrig Ar Goarnig;48.2145086;-4.0530327
"Totem ""Argoat""";sculpture;Patrig Ar Goarnig;48.2152814;-4.0510069
Cheval;;;43.2322158;0.07812
Loup;sculpture;Christian Burger;45.1648785;6.4256557
Fresque du Demi-Millénaire - Part 2;mural;Association du Demi-Millenaire - Les elephants heureux;45.7242776;4.8539418
Statue de la Sasson;statue;;45.568176;5.9210125
[REMOVED 2017];;;43.5251722;0.1615022
Statue du Docteur Philippe Pinel;sculpture;;48.8404536;2.3626498
Milan Rastislav Štefánik;sculpture;;48.8046768;2.2313561
Nomade;statue;Jaume Pensa;43.584952;7.130666
Jules Janssen;statue;;48.8055031;2.2331106
Mon Oncle;statue;Mélanie Quentin;48.8123083;2.4732587
La Forge;;;48.871684;2.3797664
;sculpture;;45.7694099;4.8794433
Grotte;;;48.8169097;2.1085559
Gladiateur combattant;statue;Nicolas Coustou;48.8031305;2.1168411
;statue;;48.8032294;2.1161582
;statue;;48.8032661;2.11602
Faune au chevreau;statue;;48.8033224;2.1161309
;statue;;48.8033787;2.1162315
;statue;;48.8034079;2.1161018
Minerve;statue;;48.8035075;2.1154311
Vase entouré de lierre;ornamental_vase;Mélo;48.8035559;2.1119707
Femme drapée;statue;;48.8035831;2.1126875
Vénus;statue;;48.803718;2.1130614
Sacrifice dyonisiaque;ornamental_vase;Jean Rousselet;48.8039322;2.111591
Appolon Pothos;statue;;48.8040047;2.1132202
Flore Farnèse;sculpture;Raon;48.804221;2.1098667
Marsyas et Olympe;sculpture;Jean-Baptiste Goy;48.8042252;2.1166856
Femme Drapée;statue;;48.8042705;2.1130912
L'ivresse de Silène;ornamental_vase;Jean Rousselet;48.8045521;2.1119671
L'Eau;sculpture;Legros;48.8045684;2.1182524
;sculpture;;48.8046134;2.1171598
Vase entouré de lierre;ornamental_vase;Mélo;48.8046113;2.1126237
;sculpture;;48.804632;2.1102809
Le Printemps;sculpture;Laurent Magnier;48.804691;2.1183178
Antinoüs;sculpture;Pierre Le Gros;48.8047399;2.1167067
Le Point du Jour;sculpture;Marsy;48.8047553;2.1182086
Le Poème Lyrique;sculpture;Tuby;48.8047612;2.1180372
Mercure;sculpture;Mélo;48.8048094;2.1164539
Uranie;sculpture;Martin Cartier;48.8048784;2.1161986
;sculpture;;48.8049055;2.1107067
;sculpture;;48.804936;2.1106712
;sculpture;;48.8049612;2.1104903
;sculpture;;48.8049706;2.1105402
;statue;;48.8050071;2.1169641
;statue;;48.8050614;2.1173054
Le Gladiateur mourant Ludovisi;sculpture;Monier;48.805071;2.1160049
Hercule Farnèse;sculpture;Cornu;48.8051147;2.1104155
;ornamental_vase;;48.8052452;2.1173771
;sculpture;;48.8053003;2.1158361
;sculpture;;48.8053645;2.1118181
;sculpture;;48.8054263;2.1117533
;sculpture;;48.8054729;2.1159386
;sculpture;;48.8054731;2.1120522
Le sacrifice d'Iphigénie;ornamental_vase;Cornu;48.8054834;2.1172625
Vase aux raisins;ornamental_vase;Claude Bertin;48.8055139;2.1214696
;sculpture;;48.8055341;2.1119878
;sculpture;;48.8055439;2.1115869
;sculpture;;48.8055729;2.1159439
;ornamental_vase;;48.8056579;2.1157464
Vase aux rameaux de chêne;ornamental_vase;;48.8056708;2.1208859
;sculpture;;48.8056797;2.1118754
Alexandre le Grand;sculpture;;48.8056934;2.1114721
Bacchanale;ornamental_vase;Cornu;48.8057099;2.1174066
Apollon;sculpture;;48.8057512;2.111411
;sculpture;;48.805799;2.1117088
Aria et Poetus;sculpture;;48.8058048;2.115708
L'Air;sculpture;Le Hongre;48.8058113;2.1188514
Vase aux rameaux de chêne;ornamental_vase;;48.8058199;2.1203365
;ornamental_vase;;48.8058397;2.1177397
;sculpture;;48.8058614;2.1116433
La Mélancolique;sculpture;;48.805874;2.1187266
Le Midi ou Vénus;sculpture;Marsy;48.8059242;2.1190699
;ornamental_vase;;48.8059266;2.1153472
Vase aux raisins;ornamental_vase;Claude Bertin;48.8059734;2.1197519
;statue;;48.8060148;2.1178856
La Fidélité;statue;Armand Lefebvre;48.8060024;2.1150599
Antinoüs;sculpture;Pierre Le Gros;48.806055;2.1186242
L'Europe;sculpture;Pierre Mazeline;48.8060691;2.119159
Vénus;statue;Richelieu;48.806106;2.1146584
L'Enlèvement de Proserpine par Pluton;statue;;48.8061192;2.1124024
;statue;;48.8061976;2.1177176
Loacoon et ses fils;sculpture;;48.8061892;2.1159262
;ornamental_vase;;48.8061894;2.1143667
Tigrane;sculpture;Mathieu Lespagnandelle;48.8061991;2.1184696
L'Afrique;sculpture;"Jean Cornu;Sibrayque";48.8062135;2.1192453
Papitius et sa mère;sculpture;;48.8062458;2.1163591
Le Poème Héroïque;statue;Drouilly;48.8062496;2.1221177
;ornamental_vase;;48.8062502;2.1155255
;ornamental_vase;;48.8062647;2.1140613
;ornamental_vase;;48.8062851;2.1161128
Flegmatique;statue;Lespagnandelle;48.8063076;2.1218925
Hercule;sculpture;Le Conte;48.8063075;2.1164582
Vase Jeux d'enfants;ornamental_vase;;48.8063168;2.1211768
La Fourberie;statue;Le Conte;48.8063296;2.1152393
Faune au Chevreau;statue;;48.8063436;2.1137658
La Nuit;sculpture;Jean Raon;48.8063575;2.1193335
L'Asie;statue;Roger;48.8063695;2.1216577
Vase Jeux d'enfants;ornamental_vase;;48.8064157;2.1208216
Poème satyrique;statue;Buyster;48.8064293;2.121436
Junon;statue;;48.8064358;2.1148616
Didon;statue;Jean-Baptiste Poultier;48.8064409;2.1133894
Bacchante;sculpture;Dedieu;48.8064828;2.1165717
Faustine;sculpture;Regnaudin;48.8064871;2.1177781
La Terre;sculpture;Benoît Massou;48.806504;2.1194204
;ornamental_vase;;48.8065166;2.1145686
Vase aux Tournesols;ornamental_vase;Sébastien Slodtz;48.8065368;2.1130372
Hercule Commode;sculpture;Coustou;48.8065538;2.1175256
Nymphe à la coquille Borghèse;sculpture;"Sucheret;Coysevox";48.8065736;2.1169302
;ornamental_vase;;48.8065958;2.1142684
Le Faune;sculpture;Houzeau;48.8066623;2.1166648
L'hiver;statue;François Girardon;48.8066134;2.1207432
Uranie;sculpture;;48.8066235;2.1172723
;ornamental_vase;;48.8066316;2.1126925
Le Poéme pastoral;sculpture;Pierre Granier;48.8066474;2.1195065
;statue;;48.8066616;2.1109029
Hercule et Télèphe;statue;;48.806673;2.113968
L'été;statue;Hutinot;48.8066733;2.1205219
Ganymède et Zeus;sculpture;;48.8066884;2.1170184
Flore ou Le Printemps;statue;"Simon Mazière;Arcis";48.8067235;2.1110954
Amazone;statue;Buirette;48.8067202;2.1123562
L'Amérique;statue;Gilles Guérin;48.8067377;2.1202855
Le sanguin;sculpture;Jouvenet;48.8067385;2.1214213
Vénus Médicis;statue;;48.8067735;2.1135945
L'Automne;statue;Thomas Regnaudin;48.8068013;2.120049
Diogène;sculpture;Lespagnandelle;48.8067582;2.116727
Pan;statue;Simon Mazière;48.8068135;2.1112591
Achille à Scyros;statue;Vigier;48.8068131;2.1120048
Le colérique;sculpture;;48.8068398;2.1210824
;ornamental_vase;;48.8068612;2.1132455
Isocrate;sculpture;Pierre Granier;48.806866;2.1194609
;statue;;48.8069005;2.1116581
Ino et Mélicerte;statue;Granier;48.8069303;2.1113885
Apollonius;sculpture;Barthélemy de Mélo;48.8069495;2.1198704
Théophraste;sculpture;Simon Hurtrelle;48.8069485;2.1195175
;ornamental_vase;;48.8069522;2.1129055
Lisias;sculpture;Jean Dedieu;48.8070023;2.1196548
Cyparisse;statue;Flamen;48.8070444;2.1125603
Artemise;statue;"Armand Lefebvre;Desjardins";48.8071397;2.1122143
;statue;;48.8072311;2.1118681
Leucothée;statue;Rayol;48.8073254;2.1135128
Le Point du Jour;statue;Legros;48.8073311;2.113405
Aristée et Protée;statue;Sébastien Slodtz;48.8073342;2.1116447
Arcis;statue;Jean-Baptiste Tuby;48.807439;2.1132156
Syrinx;statue;Simon Mazière;48.8074833;2.1116898
Nymphe de Diane. dite aussi Callisto;statue;Flamen;48.8075009;2.113744
L'Aurore;statue;Jean-Philippe Magnier;48.8075127;2.1131957
Arion;statue;Raon;48.807573;2.1137225
;statue;;48.807622;2.1116545
;sculpture;;48.8076815;2.1135389
Galatée;statue;Jean-Baptiste Tuby;48.807686;2.1134284
;statue;;48.8079666;2.1114363
;sculpture;;48.806918;2.1158996
;sculpture;;48.807121;2.1160374
;sculpture;;48.8071909;2.1157779
Ulysse;sculpture;Philippe_Magnier;48.8067615;2.1195051
Statue de Lassalle;statue;;48.594705;6.4909029
Monument à Tyssandier d'Escous;;;45.1378473;2.4940291
Tremblement de Ciel;sculpture;;49.1040682;6.1846435
Fontaine Coexist;;;43.6866373;7.3396209
L'homme au mouton;sculpture;Pablo Picasso;43.5795217;7.052466
Les Chevaux de Marly;statue;Guillaume Coustou (1677-1746);48.8664111;2.1008254
Les Chevaux de Marly;sculpture;Guillaume Coustou (1677-1746);48.8662285;2.1016381
Le sport: Golf;;;50.8645428;1.7403158
Statue de Jeanne d'Arc;;;43.6049795;0.0461455
;sculpture;;48.8080381;2.1168706
;sculpture;;48.8081131;2.1163914
;sculpture;;48.8083678;2.1155071
;sculpture;;48.8084643;2.1172313
;sculpture;;48.8085469;2.1156116
;sculpture;;48.8088717;2.1174402
;sculpture;;48.8091095;2.117009
;sculpture;;48.8091764;2.1160102
;sculpture;;48.8092668;2.1159157
;sculpture;;48.8092909;2.1133368
;sculpture;;48.8095619;2.1141125
;sculpture;;48.8156198;2.1012029
;sculpture;;48.8160341;2.1015517
;sculpture;;48.8162188;2.1010513
Vierge;;;48.8126453;-0.643528
Pierre-Paul Riquet;statue;;43.6091318;1.4538235
Monument aux Morts;sculpture;Pierre Curillon;48.8915176;2.1964941
L'Île de France Sans Bras;sculpture;Maillol;42.4811514;3.1302545
Jules Bastien-Lepage;statue;Auguste Rodin;48.8256305;2.2171766
Fontaine Wallace;;Charles-Auguste Lebourg;43.5964216;1.4518819
Déesse de la Marne;statue;;48.7259791;4.5852681
Fishing trawler;;;49.293031;-0.0938551
Fishing trawler;;;49.2943043;-0.0905235
Fontaine Wallace;;Charles-Auguste Lebourg;43.6021078;1.4478777
Fontaine Wallace;;Charles-Auguste Lebourg;43.598193;1.4366744
La Rue des Grands Chefs;;;45.8158252;4.8474137
Statue de Monsieur Hulot;sculpture;Emmanuel Debarre;47.2380184;-2.2803034
Le cabinet d'amateur;;;48.8512228;2.3804664
sculpture pédagogique : Première Pierre;;;47.1887542;-1.5686379
La Marne;sculpture;Le Hongre;48.8054248;2.1187592
La Seine;sculpture;Le Hongre;48.8055927;2.1188591
Les Javelots;sculpture;Peter Logan;47.2586356;-2.2230591
;statue;;44.404026;2.5611172
Sculpture Liebherr (Exclos 72);sculpture;Guillaume Roche;48.0932199;7.355851
;sculpture;;44.4369954;2.516484
Général Travot;statue;;46.8341809;5.7090777
Monument à Wladimir Gagneur;statue;Marguerite Syamour;46.8416789;5.7063523
Butt;;;43.6865674;7.3396157
Eros;sculpture;;49.1964682;2.4798108
;sculpture;;48.863858;2.2770487
Naïade de Vors;sculpture;Denys Puech;44.349419;2.5734354
Quercus Robus;;;47.7145114;6.8434041
Les Flèches des cathédrales;sculpture;Georges Saulterre;48.6041404;2.0751347
Pôle métiers d'art du papier;;;48.4642595;-3.9747919
Reliure - restauration;;;48.4641065;-3.9748831
;sculpture;;47.7466733;7.369978
Le Loup de Brasparts;sculpture;;48.3013851;-3.9554619
La Fonderie de verre;;;48.5571521;-2.5497341
Statue de la Vierge;;;43.4840677;-1.5702939
Calvaire;;;49.1570078;6.1000758
Jacques Lipchitz;sculpture;;48.8357559;2.2413406
Horloge de l'Hôtel de ville;;;48.8009879;2.129382
Statue de la Vierge de Montluel;;;45.8533433;5.0511694
Fontaine Wallace;fontaine Wallace;Charles-Auguste Lebourg;48.7762561;2.4569666
Statue Massey;sculpture;;43.2363111;0.0746144
Jehan de Grouchy;statue;;49.5045151;0.1955064
Sentinelle de la vallée du Bès;sculpture;Andy Goldsworthy;44.233544;6.2554396
Buste;;;48.8387877;-1.5979481
Calvaire;;;49.1600642;6.1040538
;mural;Jan Kalab;43.399619;3.696277
;mural;Eric Lacan;43.399802;3.696244
;mural;Ratur & Sekaro;43.401395;3.693926
;mural;Dna Crew;43.401742;3.693693
;mural;Alëxone;43.402075;3.695459
;mural;C215;43.402428;3.696288
;;Hélène Gauthier;47.6533045;6.8688484
La douleur maternelle;statue;Antoine Étex;46.5760017;0.3352937
Le bonheur maternel;statue;Antoine Étex;46.5759137;0.3353634
Monument du Comte de Blossac par Sudre;;;46.5751061;0.333003
Le Lion Amoureux;statue;Hippolyte Maindron;46.5750877;0.3332122
Faune soufflant dans une corne;statue;Eugène Antoine Durenne;46.5752057;0.3330298
Faune au Coquillage;statue;Eugène Antoine Durenne;46.5753384;0.332767
Léon Bazile Perrault par Sudre;;;46.5754748;0.3338452
Amour sur un Griffon;statue;Eugène Antoine Durenne;46.5758876;0.33395
Amour sur un dauphin de Durenne;;;46.5759579;0.3339525
Statue de Jeanne d'Arc;statue;Maxime Réal del Sarte;46.5824183;0.3423582
Flower Tree;sculpture;Jeong Hwa Choi;45.7559111;4.8358966
Molière - Jean-Baptiste Poquelin;;;48.8655521;2.336668
;statue;;48.7060152;1.9865433
Monsieur Loyal;statue;Alexander Calder;45.1942186;5.732099
Étoile Polaire;installation;Mark Di Suvero;45.1947058;5.7316537
Elephant;sculpture;;48.8604814;2.3250888
Le Cheval à la Herse;sculpture;;48.8605235;2.3255865
Rhinocéros;sculpture;;48.8605196;2.3254765
;sculpture;;48.8600131;2.325068
;sculpture;;48.8600235;2.325033
;sculpture;;48.8600338;2.3249979
;sculpture;;48.8600442;2.3249629
;sculpture;;48.8600546;2.3249279
;sculpture;;48.8600649;2.3248928
Dora Maar;sculpture;Picasso;48.8542921;2.3338906
;rostral column;;48.8655485;2.3224721
Statue Lille 3000 - les démons;sculpture;;50.6270272;3.0714712
Monument-Signal d'Hensies;sculpture;Jacques Moeschal;50.4390905;3.6686949
Botzaris;;Hector Guimard;48.8795998;2.3890886
Statue de Jacques Cartier;statue;;48.6471604;-2.028732
Tholus le dragon;sculpture;Tom Petrusson;43.6119117;1.4328183
Cube;sculpture;;46.3037807;4.4805292
Fontaine Wallace;fontaine Wallace;Charles-Auguste Lebourg;46.6756977;5.5555458
;sculpture;;45.8387969;3.5569795
Place Paul Bert;;;48.5144654;2.6347736
Monument aux morts;;;48.5367527;2.6615911
Fontaine Saint-Jean;;;48.5392663;2.6623613
;sculpture;;48.5332463;2.6586429
Fontaine de la Vierge;statue;;45.0783828;4.565684
Sculpture ferraillée;sculpture;;44.8656114;1.3830715
Muralis Dax;mural;Jean-Luc Feugeas;43.7096054;-1.0562487
Édicule Guimard;;Hector Guimard;48.8607345;2.3409063
Sarabande;sculpture;;48.8388447;2.5555009
Mémorial du Digger;statue;;50.194184;2.9381886
Statue de Kellermann;statue;;49.0793043;4.7732415
Saint-Jacques;sculpture;;45.2218932;4.4545654
Charles Du Cange;statue;;49.8910287;2.3031063
;sculpture;;47.2638602;6.0448178
Musée de Dado;;;43.2638391;3.3134427
Osezlacier;sculpture;Daniel Jouen;49.4854665;0.1276305
Cavalier Blanc;sculpture;;48.454672;0.1004989
Cavalier Noir;;;48.4526793;0.1002425
L'Heure de tous;sculpture;Arman;48.8758702;2.3266224
La caravanne;sculpture;Joep van Lieshout;49.1824661;-0.3697601
Atelier Saint-Médard;;;49.1741149;4.467015
Les Trois Pics;sculpture;Alexander Calder;45.1910696;5.7152005
Gaenseliesel;statue;;48.5920976;7.7742165
Missak Manouchian;statue;Michel Adjar;48.8155216;2.2650472
Sapeur Camember;sculpture;Françoise Faure Couty;47.6836339;6.4963171
Le Guetteur;statue;Olivier de Sagazan;48.0458754;-1.6025994
La faune des gravières;mural;ALFE;47.44339;5.187016
Alfred Sisley;statue;Eugène Thivier;48.3737836;2.8147464
Le Bazar du Lézard;;;43.4043111;6.061769
;sculpture;;49.0326715;1.9384769
Association Chantier libre;;;46.0179435;6.0722861
Le Voyage de la Sirène;;;47.2757109;-2.2048102
Ceinture d'Astéroïdes;sculpture;;45.1943738;5.7778847
Jupiter;sculpture;;45.1944946;5.7782714
Mars;sculpture;;45.1943248;5.7776195
Mercure;sculpture;;45.1942661;5.7773958
Neptune;sculpture;;45.1927934;5.7780159
Saturne;sculpture;;45.1943262;5.7790635
Terre;sculpture;;45.1942964;5.7775433
Uranus;sculpture;;45.1932112;5.7787869
Vénus;sculpture;;45.1942808;5.777496
Centauresse et Faune;sculpture;Augustin Courtet;45.7774577;4.845693
Ensemble pour la Paix et la Justice;sculpture;Xavier de la Fraissinette;45.7794036;4.8475047
Vierge;statue;;47.2561119;6.003899
Monument aux morts;statue;Paul Ducuing;43.3605084;-1.7759014
;sculpture;;49.1253293;4.5430934
"Chorten ""L Oeuf""";;;48.814569;7.4507432
"Chorten ""Le Temple""";;;48.8122696;7.4499333
Chorten La Vrille;;;48.8183845;7.456736
Lune;sculpture;;47.8710978;-3.5489893
Menhir;sculpture;;49.4353407;6.5254349
Menhir;sculpture;;49.4353618;6.5246757
Menhir;sculpture;;49.4357936;6.5243533
Menhir;sculpture;;49.4359521;6.5111213
Menhir;sculpture;;49.4361493;6.5070759
Menhir;sculpture;;49.4363838;6.5288237
Menhir;sculpture;;49.4368168;6.5240114
Menhir;sculpture;;49.4369876;6.5230074
Menhir;sculpture;;49.4370506;6.5219202
Menhir;sculpture;;49.4370535;6.5228005
Menhir;sculpture;;49.4372068;6.5019163
Menhir;sculpture;;49.4373311;6.523047
Menhir;sculpture;;49.438246;6.5197093
Menhir;sculpture;;49.4384942;6.5299609
Menhir;sculpture;;49.4385744;6.5296792
Menhir;sculpture;;49.4392493;6.5172784
Le Souvenir;sculpture;Paul Dubois;48.6897183;6.1779835
Mockingbirds;mural;Lonac;45.192869;5.755774
;sculpture;;50.9982918;2.1217789
Degré;sculpture;Nissim Merkado;48.1204723;-1.6314696
Le joueur de flûte;sculpture;Michel Levy;48.5674242;2.7822583
Au Général Claparède;statue;;43.6518346;3.5484257
Monument Émile Jamais;sculpture;;43.7385462;4.1825439
Rhinocéros en bois;statue;David Steinfeld;43.6435763;3.877894
Rhinocéros en bois;statue;David Steinfeld;43.643604;3.877928
Lion en bois;statue;David Steinfeld;43.6420427;3.87311
Lion en bois;statue;David Steinfeld;43.6420737;3.8731503
Lion en bois;statue;David Steinfeld;43.642085;3.8731576
Lion en bois;statue;David Steinfeld;43.6420978;3.8731597
Croix située sur le pont;;;43.1850448;2.0350905
L'accueillant;sculpture;Jean Dubuffet;48.8798575;2.402768
Statue de La Liberté;sculpture;Auguste Bartholdi;43.6757174;4.1318763
Statue de Pierre Belon;sculpture;;47.8271327;0.075183
Statue de Racine;statue;Pierre-Jean David dit David d'Angers;49.1757297;3.1261874
Découpes et Jouets Bois;;;48.0904913;6.7832812
Maison de l'Artisanat;;;48.0933166;6.7979133
Artilleur;statue;Auguste Arnaud;49.6613505;3.368633
Vase au Faune;;;48.8708476;2.2489608
Virgo Mirarabilis;statue;;43.2963823;5.4467479
Statue de Marius Saïn;;;43.6040627;3.8959777
Croix des Tisserands;;;43.3705504;2.3622543
Vénus au collier;sculpture;Aristide Maillol;42.699913;2.8950281
La Méditerranéenne ou La pensée;sculpture;Aristide Maillol;42.6994229;2.8947243
Skis et piolet;;;45.2630731;6.163063
Vision du Poète;sculpture;Georges Bareau;48.8617343;2.2680458
Homme au Bras levé;sculpture;Olivier Brice;48.8681463;2.3484998
Notre-Dame du Port;sculpture;Lucien Danglade;43.6557853;-1.445704
Fontaine Wallace;sculpture;Charles-Auguste Lebourg;48.932855;2.041801
Archange Saint-Michel;statue;;45.0174073;2.6671938
Passion-Mouton;;;45.0095524;1.0883024
It takes two to tango;sculpture;David Mach;43.3154779;5.3653727
Diane;statue;;47.0856126;-1.2744874
;statue;;47.0848407;-1.2735787
L'appartement de l'artiste;architecture;Pascal Convert;47.0857206;-1.2757648
La Borne Militaire;;;47.0847305;-1.2712459
;statue;;47.0837863;-1.2746816
Place Victore Noël;sculpture;;47.4134407;5.2054526
Fontaine;;;45.7633306;4.8767625
Espace Eqart;;;43.5225344;0.1627426
Jardin d'Ilhy;;;43.5259768;0.1599075
La Vierge et Saint-Jean;statue;;44.3822008;2.0002312
Vierge à l'Enfant;statue;;44.3822679;2.0002325
Monument aux morts de 1870;sculpture;;44.0172781;1.3514601
metal fish;;;45.7682938;4.87752
L'Édicule à l'Antique;;;47.0838026;-1.2753206
Rocher Dellile;;;47.0843904;-1.2760684
Le Rocher Rousseau;;;47.0846278;-1.2764492
Cône de chantier;sculpture;Lilian Bourgeat;45.7823036;4.8762438
Monument au Maréchal Foch;equestrian_statue;Edgar Boutry;50.6359269;3.0566177
Sans titre;sculpture;René Roche;45.7827672;4.8774353
;sculpture;;48.5626237;2.1294447
;sculpture;;48.562643;2.1295064
;sculpture;;48.5626618;2.1295639
;sculpture;;48.5626799;2.1296248
;sculpture;;48.5627242;2.1297757
;sculpture;;48.5627435;2.1298366
;sculpture;;48.5627611;2.1298957
;sculpture;;48.5627781;2.1299549
;sculpture;;48.5653463;2.1277112
;sculpture;;48.5654547;2.1280624
;sculpture;;48.5660767;2.126987
;sculpture;;48.5662985;2.1271082
;sculpture;;48.5662991;2.1277322
;sculpture;;48.5663915;2.1274092
Malizia Statue;statue;;43.7312604;7.4210365
Louis Pasteur;statue;;48.8308919;2.1774039
Galerie de la Baie;;;47.627613;-2.822062
Fontaine Wallace;fontaine Wallace;Charles-Auguste Lebourg;51.0311341;2.3760803
Buste d'André Gill;;;48.8828416;2.3403455
Le Patineur;sculpture;César;45.7686896;4.8375469
Statue de Saint-Michel terrassant le dragon;statue;Paul-Émile Millefaut;45.7622689;4.8229305
Galerie d'art du rond point du péage de Bandol - Adaoust;;;43.1424526;5.770076
;statue;;48.3189371;4.0675321
La Vierge;;;45.1292648;5.5459947
Duquesne;statue;;47.8710723;-3.9115667
;statue;;47.0853621;-1.2748541
;statue;;47.0854927;-1.2749348
;statue;;47.0857725;-1.2741314
La Colonne de Madrid;;;47.0841119;-1.2723106
Le Tombeau à l'Antique;;;47.0838521;-1.2732468
;statue;;47.0839943;-1.2758255
;sculpture;;46.4493065;4.8431621
;sculpture;;50.4074655;3.4411502
Les Chevaliers Cathares;sculpture;Jacques Tissinier;43.1543502;2.9656772
;sculpture;;48.8007589;2.4777927
Quattuor Tempora;sculpture;Christophe Mabillon;48.5666401;2.425099
;sculpture;;48.785669;2.0561951
;sculpture;;48.830302;2.1926286
Le Rhino de l'INSA;sculpture;Jean-Marc Bonnard;45.783362;4.8747583
Nik Borroka Maite Dut;mural;RNST;43.4950138;-1.4671722
Topiaires;;;48.0430953;-3.4983089
Chrysalide;sculpture;Sylvain Dubuisson;48.1130138;-1.6814285
La Grisette de 1830;sculpture;;48.8685964;2.3674458
Le Petit Buveur;statue;Charles Robert CHAMPAGNY;45.4374098;4.3863448
Le Delta du Doubs;;;47.2305546;6.0287709
Le Delta du Doubs;;;47.2330412;6.0351041
;mural;;48.6811008;6.154419
Forge et Nature;;;47.3173542;-2.1873194
Statue de Jeanne D'arc;statue;;44.0223495;3.3022597
Buste d'Alexandre Varenne;statue;;45.7768603;3.077554
Royer Collard;statue;;48.7252074;4.5858994
;;Invader;48.8697601;2.3515729
La vie. l'eau. la maternité. la naissance;sculpture;Francesco Giglia;50.3594194;3.5258692
Francisco de Paula Santander;sculpture;;48.8628657;2.267654
Léon Bollée;sculpture;Raoul Verlet;48.0003729;0.197094
L'Hiver - Le Père Hiver;sculpture;;48.7190854;4.9527687
;sculpture;;48.7204425;4.9510857
;sculpture;;48.7203904;4.9512281
La Charité;sculpture;;48.7203505;4.9517456
La Foi;sculpture;;48.7201592;4.9517453
L'Automne - Bachus;sculpture;;48.7196306;4.9515778
;sculpture;;48.7181877;4.9498627
Le Printemps - Flora;sculpture;;48.7200461;4.9507161
Cadet Roussel;statue;François Brochet;47.7949059;3.5694681
Atelier Bourg Joly Malicorne. Faïencerie d'art;;;47.8136304;-0.0884672
Faïence de Malicorne-Bourg Joly Malicorne-;;;47.8139833;-0.0882176
;sculpture;;45.4469198;4.3705116
;sculpture;;45.4468912;4.3708415
Statue de l'Amour et de la Folie;statue;Paul Darbefeuille;48.8989716;2.0967133
Porthos;statue;;47.5510188;1.5390885
La Main de Bacchus;sculpture;;43.8115468;5.7497874
;statue;;43.7277315;2.1917547
Les ailes brisées;sculpture;;44.8050799;4.3522084
Le Poisson;landart;;43.2191663;5.3490414
;statue;;43.6772637;2.203397
Statue Désiré Bancel;statue;;44.9280991;4.8929536
;statue;;50.635995;3.0465461
La Nef solaire;sculpture;Odile Mir;44.0014129;4.7003062
Statue de Jules Verne enfant;statue;Élisabeth Cibot;47.2022607;-1.5764954
Statue du capitaine Nemo;statue;Élisabeth Cibot;47.2021986;-1.5765049
Discobolos;sculpture;Wim Delvoye;50.6945707;3.1772169
Statue de Jeanne d'Arc;;;47.2747321;-2.4271281
La Baigneuse au Miroir;statue;Camille Alaphilippe;47.2198057;-1.5426011
La Moissonneuse;statue;Denis Gélin;47.2190096;-1.5416315
Statue d'Anne de Bretagne;statue;Jean Fréour;47.2165156;-1.5504411
Le Toucan à bec caréné;painting;Alain Thomas - Ateliers Greleg;47.2175311;-1.5537916
Statue de Joachim du Bellay;;;47.3633805;-1.1777202
Statue de Joachim du Bellay;;;47.3430758;-1.1648563
Apothéose de la source Cachat;statue;Charles Beylard;46.3997979;6.5916312
;sculpture;;48.69009;2.6109806
Le Bourgeon;statue;Pierre Lagénie;48.7850507;2.4954851
Terres et toiles;;;44.8102749;0.8241087
Centre de Loisirs;;;47.8247972;1.688555
Fontaine;;;45.8962757;2.8778893
Enclos;;;45.8953189;2.8840487
Goutte;;;45.8963252;2.8815785
Lignes qui tournent;;;45.8960917;2.8821206
Pierrier;;;45.8956002;2.8804513
Promontoire;;;45.895817;2.8813961
Statue;sculpture;;48.7490995;4.6210188
Cages;;;45.8914686;2.8830628
Cages;;;45.8915436;2.8830506
Cages;;;45.8918821;2.8829292
Cercle;;;45.8919338;2.8826183
Jetée;;;45.8929792;2.8830499
Ruelle;;;45.8917099;2.8834737
Ruelle;;;45.8918351;2.883378
Ruelle;;;45.8919552;2.8832777
Sièges;;;45.8929134;2.8832148
Forêt;;;45.8926575;2.8814184
;sculpture;;48.8593573;2.3385482
;sculpture;;48.8594834;2.3386169
;sculpture;;48.8595137;2.3384868
;sculpture;;48.8596727;2.3377903
;sculpture;;48.8596998;2.337661
;sculpture;;48.8597291;2.3375318
;sculpture;Gildas Flahault;47.6399937;-2.9480889
Chaîne;;;45.893038;2.8869287
Dôme;;;45.8962107;2.8881231
Granit;;;45.897576;2.884888
Table;;;45.8969513;2.8864282
Trône;;;45.8969906;2.8864313
Élévation;;;45.8973247;2.8863537
;statue;;43.6082136;3.8864626
;statue;;43.6082229;3.8863237
;statue;;43.6083371;3.8864826
;statue;;43.6083508;3.8863461
Librairie et Objet d'Art;;;49.1472855;2.3850922
La Vierge;statue;;43.5962544;5.9666477
;mural;;47.759431;7.36189
Statue du Cardinal Charles Martial Lavigerie;statue;;43.4933138;-1.4734846
Monseigneur Belsunce;statue;;43.2992411;5.364389
LHC magnet cryostat;;;46.2308428;6.0551966
La liseuse;;;44.5601308;6.0808655
Verrerie d'art;;;48.469382;2.5057719
Louve Romaine Allaitant Rémus et Romulus;statue;;48.8500288;2.3439047
Montaigne assis;statue;;48.8499379;2.3439939
Fontaine Wallace;;Charles-Auguste Lebourg;48.8522608;2.4040943
overhead houses;;;45.7696835;4.8935226
Rond-Point de l'Europe - sculpure giratoire;;;45.7743242;4.8939234
Pierre-Paul Riquet;statue;Pierre-Jean David. dit David d’Angers (1788-1856);43.3415942;3.2175409
;sculpture;;49.3575302;6.1684785
;sculpture;;48.8471374;2.4299868
Polig Monjarret;statue;;47.7468356;-3.3585176
PA1269;;;48.866262;2.3356061
Statue équestre de Napoléon Ier;statue;Émilien de Nieuwerkerke;46.6706047;-1.4266931
Extase;sculpture;Mark di Suvero;48.3596887;-4.5643988
Marta Pan-'Les Marches';;;48.7808487;2.0463611
Marta Pan -'Les engoufrements';;;48.781591;2.0452558
Air;sculpture;Aristide Maillol;48.8624108;2.3314605
Statue de la Liberté (réplique);statue;;43.1806991;5.7110351
;statue;;43.6622301;2.3495562
Eternity;;;45.8025524;1.8688409
Les Deux Murs Jumeaux;;Andy Goldsworthy;45.8061382;1.8665447
Niki Quester;;Oscar Tuazon;45.8000686;1.8578502
;;Bernard Calet;45.8039476;1.8689845
;sculpture;;43.6341626;2.4071084
;statue;;43.6780448;2.2296259
Diane d'Ephèse;;;48.8583382;2.0957397
Bas-relief L'écrit du temps;;Jean de Gaspary;48.8578193;2.3990652
Vierge du Fort;statue;;44.6855482;2.8449068
Le Dragon;;Victor Roman;48.7805078;2.0482654
;sculpture;;48.7804636;2.048759
;sculpture;;48.7807853;2.0471014
Mémorial des victimes du loup enragé;statue;;46.6224489;1.6300352
Loup;sculpture;;46.6353224;1.642616
Fontaine de Neptune;sculpture;;46.7847185;4.8544949
;sculpture;;42.3402529;9.5351243
Monument aux morts;statue;Jean Galle;48.9225993;2.1851412
Statue d'Hercule;;;48.5565815;2.715749
Le Pêcheur et la Ramendeuse;statue;Sébastien Langloys;43.4072981;5.05478
Misconceivable;sculpture;Erwin Wurm;47.2083043;-1.7838908
Vénus sortant des flots;statue;Robert Forrer;43.0683666;5.7933674
Reflets d'Arts;;;43.7338935;6.1759424
Lune et L'Autre;;;43.7333343;6.1755181
;sculpture;;45.4277484;4.4030172
;sculpture;;45.4280751;4.4021437
Engraves : Alain Prillard. Painting : Charlotte Ince;;;44.4502508;1.6975462
Christian Destieux;;;44.4642923;1.6680701
Polyphème;;;45.7675929;4.8352734
Poséidon;;;45.7676895;4.8353164
Amphitrite;;;45.7677227;4.8352459
Galatée;;;45.7676393;4.8353272
;sculpture;;43.2935041;5.3864396
;sculpture;;48.7200595;4.9520264
L'Espérance;sculpture;;48.7203135;4.9514015
;sculpture;;43.2929431;5.3854345
;sculpture;;43.294033;5.3861073
4 Fils Aymont;statue;;49.8596413;4.7405596
PA-831;;;48.8519395;2.4012255
The Wishbone;;;45.1739381;5.7623545
;statue;;43.5717998;2.0133521
;sculpture;;43.2483106;5.3746538
;sculpture;;43.2274364;5.4158813
;sculpture;;48.7979458;2.4801651
;sculpture;;48.7980083;2.4800781
Vasarely;;;43.3369689;5.41137
;sculpture;;43.3001377;5.3834225
;sculpture;;43.3004397;5.3833041
;sculpture;;48.5944806;-0.3565355
;statue;;43.6050745;1.4413001
;sculpture;;49.565585;3.6267147
L'Abatoir;;;46.7750371;4.8453427
;fontaine Wallace;Charles-Auguste Lebourg;48.8845709;2.2614591
;statue;;43.7185447;2.0732881
Raimbaud II;statue;Daniel 1846;44.137121;4.808081
;sculpture;;48.1522046;-3.806668
;statue;;48.1523695;-3.8068358
;statue;;48.1523859;-3.8065397
Statue Madame de Sévigné;statue;;48.1179732;-1.2095921
Henri Schneider;statue;;46.8025854;4.4483974
;sculpture;;43.2933817;5.3937766
Disque ailé;sculpture;Paul Gonez;46.9013355;6.3537136
Monument à Gaspard Monge;statue;François Rude;47.0244921;4.8381318
La Station;;;43.7166746;7.2841072
Vierge;statue;;43.3072179;3.2062901
Statue de Jeanne d'Arc;;;47.755807;6.7403426
Fresque d'Antan;painting;;48.6853023;6.2112756
Merlin Antoine Christophe;sculpture;M. Gemignani;49.3518394;6.159939
Union;sculpture;Louis Lutz;49.3552173;6.163049
;sculpture;;49.3554582;6.1646177
;sculpture;;49.3617979;6.1657791
Étoile;sculpture;;49.3424451;6.1089897
;;François Parant;48.6723214;5.8879708
;statue;;44.136786;4.804279
fr:Samson terrassant un lion;statue;;44.1367189;4.803885
Apollon du Belvédère;sculpture;Pierre Mazeline;48.8049489;2.1159446
Coq;;;46.6661337;5.0587311
L'Arbre à Manon;;;46.7832174;4.8642715
Chaufferie avec cheminée;sculpture;Jean Dubuffet;48.7923489;2.3868665
Les Lions;statue;Jean Baptiste Henraux;48.8457119;2.3374314
Les Lions;statue;Jean Baptiste Henraux;48.8457349;2.3367578
Maxime Lalanne;bust;;44.8490075;-0.5780582
Carle Vernet;statue;Raymond Martin;44.8473105;-0.5777381
Jeunesse et Chimère;statue;Pierre Granet;44.8474395;-0.5781464
Berger jouant de la flûte;statue;Henri-Charles Maniglier;44.847678;-0.5789069
La Liberté;statue;;49.5350906;0.9640738
aquarelles de denis moulin;aquarelliste;Denis Moulin;49.0844431;-1.1777705
Girafe;;;46.7062721;4.9670737
Alexandre le Grand;bust;;48.8170094;2.1047838
;graffiti;;49.517459;4.391013
;sculpture;;43.2933881;5.3883239
Statue de Faidherbe;statue;Antonin Mercié;50.6319609;3.0618399
Vierge;statue;;43.6942457;3.3153796
Vignette Tintin;;;47.2872357;-2.2099491
;statue;;44.137084;4.804001
Vignette Tintin;;;47.2730687;-2.2031365
Vignette Tintin;painting;;47.2795324;-2.199923
Vignette Tintin;mural;;47.2769941;-2.2032975
Vignette Tintin;;;47.2756327;-2.2034533
Table d'Orientation Tintin et la mer;sculpture;Jerôme Besseau;47.2715312;-2.1987033
Vignette Tintin;;;47.2914504;-2.1943608
Frédéric Mistral;bust;;44.1377662;4.8120575
Croix du Château;sculpture;;43.8925352;3.4052703
;sculpture;;49.3602409;6.1639318
Fanfareau et Brillador _ Deux chiens de Chantilly;statue;Auguste Nicolas Cain;49.1938261;2.4862202
;statue;;49.1929078;2.4863101
;statue;;49.1929848;2.4860013
;statue;;49.1932699;2.4864996
;statue;;49.1933373;2.4862294
Anne de Montmorency;statue;;49.1936485;2.4865676
;statue;;49.1936706;2.4861293
Proserpine;statue;Henri Chapu;49.194522;2.4878135
;statue;;49.194843;2.4865269
Statue de Saint-Saturnin de Toulouse;;;46.8410547;4.4326645
;sculpture;;48.6334439;2.821873
;sculpture;;48.6338504;2.8212597
Alambic;machine;;45.2919713;3.5920762
Mirage;;;48.8213502;2.3525494
web art style. portail des arts et des artistes;;;49.6354581;-1.6296887
Le Boeuf sur le toit;;;43.299048;5.4130274
Vierge;statue;;43.8683169;3.3642027
Pythéas et Euthymènes;sculpture;;43.2966069;5.3703314
L'Oiseau de feu;sculpture;"Jean Tinguely; Niki de Saint Phalle";48.8595692;2.3515462
L'amour;sculpture;"Jean Tinguely; Niki de Saint Phalle";48.8595651;2.3516426
L'éléphant;sculpture;"Jean Tinguely; Niki de Saint Phalle";48.8594576;2.35154
La clef de sol;sculpture;"Jean Tinguely; Niki de Saint Phalle";48.8595291;2.3516107
La diagonale;sculpture;"Jean Tinguely; Niki de Saint Phalle";48.8593949;2.3514959
La grenouille;sculpture;"Jean Tinguely; Niki de Saint Phalle";48.8596182;2.351513
La mort;sculpture;"Jean Tinguely; Niki de Saint Phalle";48.8595871;2.3514758
La sirène;sculpture;"Jean Tinguely; Niki de Saint Phalle";48.8593506;2.3514647
La spirale;sculpture;"Jean Tinguely; Niki de Saint Phalle";48.8595937;2.3515998
La vie;sculpture;"Jean Tinguely; Niki de Saint Phalle";48.8594544;2.351476
Le chapeau de clown;sculpture;"Jean Tinguely; Niki de Saint Phalle";48.8594045;2.351342
Le cœur;sculpture;"Jean Tinguely; Niki de Saint Phalle";48.8594266;2.3514345
Le renard;sculpture;"Jean Tinguely; Niki de Saint Phalle";48.8594464;2.3513634
Le rossignol;sculpture;"Jean Tinguely; Niki de Saint Phalle";48.8594793;2.3514038
Le serpent;sculpture;"Jean Tinguely; Niki de Saint Phalle";48.8595333;2.351496
Ragtime;sculpture;"Jean Tinguely; Niki de Saint Phalle";48.8593883;2.3514084
;sculpture;;46.4017845;6.5910982
Bonnafé;sculpture;;44.3526401;2.5781028
Neuf lignes obliques;sculpture;Bernar Venet;43.6950645;7.2711096
Le Crayon;sculpture;6 BIS;48.7930779;2.3936137
Ondine;sculpture;Jean-Marc de Pas;49.4951028;0.1056824
M;;;43.2955009;5.3738261
Mémorial de la Paix;sculpture;Danièle Bragoni;45.6940766;4.9408798
;sculpture;;43.2962051;5.3697743
;sculpture;;43.2934127;5.3710223
;sculpture;;43.2959519;5.3698707
;sculpture;;43.295966;5.3700634
;sculpture;;43.2962243;5.3700371
Vincent Scotto (compositeur);sculpture;;43.2933126;5.3715911
M;;;43.296016;5.3705714
M;;;43.2962515;5.3729025
;sculpture;;43.2965478;5.3703421
;sculpture;;46.3205237;4.3081551
;sculpture;;46.320865;4.3080673
Saint-Simon;statue;;46.71294;6.1993553
Sculpture d'Ipousteguy;;;48.8651233;2.4215931
Ferveur;sculpture;Mireille Honein;46.7296344;2.4968178
L'Europe;sculpture;Fabián Latorre;46.723925;2.521099
Sphère éclatée;sculpture;Bernard Delagrange;46.727178;2.5002233
Alliance;sculpture;Gérard Loup;46.7216891;2.5302133
L'Amour;sculpture;Louis Derbré;46.7230538;2.5305513
Mirage III B/243;installation;;46.7276729;2.488522
Sphère;sculpture;unknown;46.7249716;2.5064761
Charles De Gaulle;sculpture;Fabien Latorre;46.7235166;2.5072589
Jacques Brel « l’homme de la Mancha »;sculpture;La Chauvinière Riant;46.7215253;2.5042468
Isabel Godin des Odonais;sculpture;Fabien Latorre ;46.7192525;2.5053143
Danseuse laçant sa sandale;sculpture;François Cacheux;46.7219813;2.5072508
Le paysan et le forgeron;sculpture;Emile André Leroy;46.7215455;2.5073447
La Fontaine aux lions;sculpture;J.B Brodikowski;46.7223914;2.5069853
Sommeil;sculpture;Popineau XX°s;46.721038;2.5073018
La Grande matinée;sculpture;François Cacheux;46.7210638;2.5075566
Neptune;sculpture;Anonyme XIXe;46.7209498;2.5072321
Sénateur Marcel Plaisant;sculpture;Jossand;46.7210582;2.508077
Réplique St Jean;sculpture;Robert Bonnefoy;46.7211373;2.5097828
Monument aux morts;sculpture;Popineau;46.7255796;2.5068753
Le dépit du poète;sculpture;Jean Valette;46.7169024;2.5141897
Statue de Louis Leprince-Ringuet;statue;;44.124517;4.07733
Statue de Louis Pasteur;statue;;44.1253727;4.0766924
Bas-relief des Ponts Jumeaux;mural;;43.6108511;1.4186253
;statue;;46.3184505;6.0690722
Sept portes de Jerusalem;sculpture;;43.2517651;5.373956
Fontaine Wallace;;Charles-Auguste Lebourg;47.2429915;-1.5779097
Signal;;Piotr Kowalski;48.7885392;2.3901905
;statue;;43.3856051;3.4635117
Sirène Atlante;;;43.5413956;7.0295497
Général San Martin;statue;;44.3482169;2.5776767
Woinic (sanglier);installation;;49.5945729;4.5038589
Statue de Daumesnil;statue;;48.84672;2.4395561
Tente;installation;Yaacov Agam;47.3126397;5.0722111
Le Couple;;;47.7884068;-3.5880214
;statue;;44.2434641;4.0229217
Carré des Arts;;;48.8522728;2.1425835
Esprit Requien;bust;;43.944552;4.8057991
Horloge biologique;sculpture;Pierre Szekely;48.7936596;2.3897167
Les Grands Fumeurs;sculpture;Alain Séchas;48.7933843;2.3869686
Les Grands Fumeurs;sculpture;Alain Séchas;48.7932613;2.3874049
Notre-Dame de Haute-Auvergne;;;45.1123332;2.8651301
;sculpture;;43.2919407;5.3593148
;sculpture;;43.2942395;5.3590628
Statue d'Antonin le Pieux;statue;;43.8394398;4.3555195
Hommage à Jacques Monod;sculpture;Gottfried Honegger;47.3146519;5.0660744
;statue;;49.0039192;7.7896456
Hannibal Barca;sculpture;Sébastien Slodtz;48.8644003;2.3249018
Jules César;sculpture;Nicolas Coustou;48.8641954;2.3247514
La Renommée montée sur Pégase;sculpture;Antoine Coysevox;48.8649306;2.3223639
Le Bel costumé;sculpture;Jean Dubuffet;48.8655591;2.323571
Véturie;sculpture;Pierre Le Gros jr.;48.8648802;2.3247052
Waldeck Rousseau;sculpture;Laurent Honore Marqueste;48.8654491;2.3250338
;sculpture;;48.8619796;2.3284442
;sculpture;;48.8622279;2.327598
;sculpture;;48.8624069;2.3291444
;sculpture;;48.8624582;2.3292789
;sculpture;;48.8625173;2.3288384
;sculpture;;48.8625457;2.3296834
;sculpture;;48.8625843;2.3278465
;sculpture;;48.8626097;2.3288102
;sculpture;;48.8626846;2.3279195
;sculpture;;48.8628647;2.3299029
;sculpture;;48.862885;2.328658
;sculpture;;48.8629677;2.3285758
;sculpture;;48.8631596;2.329784
;sculpture;;48.8632373;2.3297375
;sculpture;;48.8636612;2.3286339
;sculpture;;48.8637168;2.3301006
;sculpture;;48.8637551;2.3287024
;sculpture;;48.8638144;2.329791
;sculpture;;48.8641052;2.3289575
René-Théophile-Hyacinthe Laennec;statue;Eugène-Louis Lequesne;47.9960743;-4.1020586
Les Filles de la Mer;statue;François Bazin;47.9956044;-4.0961922
Capitaine Théophile-Malo écrivain;statue;Aristide Croisy;47.9951766;-4.110514
;sculpture;;43.944469;4.8155669
Rocher sculpté;sculpture;;48.6863627;-1.9699061
Anne de Kiev;statue;;49.2061951;2.5778411
Croix de Lorraine Topiaire;;;48.8945306;2.1049479
;sculpture;;43.2972175;5.4066839
La fée du vieux moulin;sculpture;Lucy & Jorge Orta;43.2835086;5.4301543
Lyonéon;sculpture;Nicolas Schöffer;45.7429277;4.8788498
;statue;;43.575721;3.3971887
Street Art;graffiti;;45.7672632;4.854725
François de Malherbe;sculpture;;49.1834548;-0.3645814
Auguste Pavie;statue;;48.4542215;-2.0400214
Charles Roland Néel de la Vigne;statue;;48.4539244;-2.0405113
Calvaire;;;49.1409864;6.122505
Spoutnik;;;48.6279339;2.4305896
Yi Jing;;;46.6636816;0.3581874
Statue de François d'Estaing;statue;;44.55292;2.6719244
Pale d'hélice;;;43.5660965;1.4735193
Sculpture sans titre;sculpture;Jean Amado;48.7983422;2.3836233
;statue;;48.4445359;1.4864993
;statue;;48.4445469;1.4864873
Porte du soleil;;Ivan Avoscan;44.6000428;4.7947774
Eugène I er;statue;Henri Chapu et Paul Sédille;46.805267;4.4216339
Blasy Bou dit Lebon;statue;Denys Puech;44.3486368;2.5760663
Cadran solaire;;;43.9395513;3.9450652
;sculpture;;47.3144344;5.0349879
Liberté;sculpture;;46.8133425;0.5448588
Mappemonde;sculpture;;46.8070717;4.4232056
;statue;;49.2478851;1.3412701
Statue de Jean-Baptiste Dumas;statue;;44.128775;4.0767048
Alfred Hitchcock;statue;Lionel Duclos;48.6354719;-2.0547452
;sculpture;;48.8893857;2.1700025
;sculpture;;49.6573712;-1.6554518
;sculpture;;46.7821167;4.8478942
;sculpture;;46.7837607;4.8467018
Clameur;sculpture;;46.7835228;4.8467353
Lift;sculpture;;46.7833267;4.8469603
Skanda;sculpture;;46.7827386;4.8473042
;sculpture;;46.7824183;4.8476337
La Bête du Gévaudan;;;44.9575961;3.5584318
Mosaïque de Robert Combas;;;43.5261651;5.4142905
Fanny;statue;;45.0453433;5.0526009
Signe Infini;;Marta Pan;45.9349568;4.7283196
Les Braves;sculpture;Anilore BANON;49.370941;-0.8795065
Buzz Lightyear;statue;;48.8674014;2.7774901
Fontaine Ariège-Garonne;sculpture;Alexandre Laporte;43.591928;1.4448639
Fontaine Wallace;fontaine Wallace;Charles-Auguste Lebourg;44.556865;6.0777998
Œuvre des métalliers sarthois (25 nov. 2000);;;47.9922754;0.1907951
La Madone;statue;;45.4450961;4.7775058
Ernest Renan;statue;Jean Boucher;48.787249;-3.2311885
Galerie le Garage;;;47.90083;1.91827
Thanks Gods;streetart;Eo Ipso;48.5867826;7.7390044
;statue;;44.4746805;2.4632177
Guillaume Le Conquérant;statue;Jean-Marc De Pas;49.4689446;1.1170293
Vierge à l'enfant;statue;;43.995885;2.9915843
;statue;;47.6384348;1.4109209
;statue;;43.9658382;3.0293381
"Totem ""Renaissance""";;;48.8110183;6.3326471
Statue de la Vierge;statue;;48.5720765;-1.7666233
Village des Arts;;;43.6564489;3.3174576
;sculpture;Agricol Perdiguier;43.9444305;4.8062548
Duna;sculpture;Marta Pan;45.1957368;5.7327698
Le Chant des Montagnes;sculpture;Anthony Caro;45.1958026;5.7336781
Trois lignes indéterminées;sculpture;Bernar Venet;45.195851;5.7341264
Conversation;installation;George Rickey;45.196327;5.7334936
Monoforme 26;sculpture;Gottfried Honegger;45.1963356;5.7338458
La France combatante;;;44.8991418;6.6450466
Statue de Jeanne d'Arc;;;49.1807042;-0.3554934
Le Phénix;sculpture;Louis Leygue;49.1890242;-0.3638985
Le Chant des Canuts;sculpture;Georges Salendre;45.7752053;4.8302988
Statue de Pierre Mendès-France;;;49.1596214;1.3389184
Théodore Hersart de la Villemarqué;statue;;47.8729154;-3.5433604
Le Badaud;sculpture;Gérard Auliac;44.890322;1.2166823
Les 3 Oies;sculpture;François-Xavier Lalanne;44.8903726;1.2163361
Saint-Pierre de Chavanon;statue;;45.0340079;3.5076752
Torse de femme. Cécile;;Léon Ernest Drivier;45.1955776;5.7342536
Zuhaitz;sculpture;Eduardo Chillida;45.1958755;5.7330817
Orphée;statue;Ossip Zadkine;45.1958997;5.7326858
Couple;sculpture;Eugène Dodeigne;45.1960921;5.7335661
Femme nue debout. Rolande;statue;Robert Wlérick;45.1961519;5.7330977
Jeune fille debout;statue;Marcel-Antoine Gimond;45.1950521;5.7312087
Transit West (for the 36 Albanians…);sculpture;Richard Nonas;45.195357;5.7325952
La Jeune Fille Allongée;sculpture;Maillol;42.4800734;3.1340432
Consigne à vie;sculpture;Arman;48.8755713;2.3242269
Statue de la pudeur;sculpture;Noël Bonardi;41.9128069;8.7260836
César-François Cassini de Thury;sculpture;;49.3788062;2.4179149
Statue Antonio Machado;;;42.5240631;3.0852376
Stelle Paysanne;;;42.5240757;3.0837637
Façade du gymnase;;;48.7916309;2.6579013
André Derain - Bateaux à Collioure;;;42.5239722;3.0857403
Henri Matisse - La Plage Rouge;;;42.5239106;3.0859531
Meule à moulin;;;42.5239828;3.0854165
Statue de la vierge;;;42.5235901;3.0868828
Vierge;statue;;45.0365378;5.534125
Faune à la Flûte;sculpture;Simon Hurtrelle;48.8063374;2.1182967
Bacchus;sculpture;Granier;48.8064172;2.1180495
;statue;;48.8077495;2.1115864
;statue;;48.8078645;2.11147
Adam et Ève;statue;;48.7242643;4.5901959
Statue de la Liberté;statue;;43.919088;2.16542
Frédéric Mistral;statue;Théodore Rivière;43.6775075;4.6269666
Cubes;;;46.7779647;4.8558068
Spider Louise;sculpture;;46.7784717;4.846929
Photo Noir et Blanc de deux personnes;;;48.8558878;2.4783636
;sculpture;Elmar Trenkwalder;48.5124068;2.2160625
L'Ange des Orages;sculpture;;46.7791668;4.8463065
La Baigneuse;statue;Paul Belmondo;47.9002578;1.9039083
La Vague des Conscrits;;Mick Micheyl;45.9791237;4.7304125
Le dresseur d'oursons;;;43.2954874;5.3633027
La Bicyclette Ensevelie - La Selle;installation;Claes Oldenburg et Coosje Van Bruggen;48.8932914;2.3919862
La Bicyclette ensevelie - La Pédale;installation;Claes Oldenburg et Coosje Van Bruggen;48.8932228;2.391764
La Bicyclette ensevelie - Le Guidon;installation;Claes Oldenburg et Coosje Van Bruggen;48.8933479;2.3918352
La Bicyclette ensevelie - La Roue;installation;Claes Oldenburg et Coosje Van Bruggen;48.8933602;2.3914926
Pressoir;;;46.7932846;4.7561497
L'homme anthropométrique;sculpture;Roy Adzak;48.7915831;2.3936285
L'arche à palabre des Ulis;sculpture;Fréderic Jaudon;48.6806933;2.1701391
Statue de Louis XIV;statue;Antoine Coysevox;48.8571327;2.3626406
;sculpture;;45.3791731;4.2831638
L'arbre de Fontenay;sculpture;Marino di Teana;48.8524292;2.4856625
;sculpture;;48.8418715;2.3873336
;sculpture;;48.8420168;2.3870432
Coupe de fruits;sculpture;Philolaos Tloupas;48.7612307;2.0470362
Statue Vierge Marie;statue;;43.4255524;3.3045529
;statue;;44.2287608;2.44274
Modulor;;;43.2612218;5.3964129
Diane la Chasseresse;sculpture;;43.2625491;5.3834116
La Méditerranée;sculpture;;43.2625784;5.3831187
La Fée du Lac Ophélie;aluminium sculpture;Lucy et Jorge Orta;43.260058;5.3831726
Le gnomon du frère Arsène;sundial;;45.8992726;6.1325378
;sculpture;;48.539572;2.6412112
Jacques Amyot;sculpture;;48.5397414;2.6607687
;sculpture;;48.8509148;2.3625615
;graffiti;Gil;44.7536365;-0.5872557
Pressoir;;;46.7129971;4.7038211
Vierge du Puy des Roses;statue;;45.0119562;2.6652205
;statue;;49.3688524;6.1892542
Pressoir;;;46.707078;4.6739216
Fontaine Wallace;fontaine Wallace;Charles-Auguste Lebourg;47.0798692;2.4014852
Fontaine Wallace;fontaine Wallace;Charles-Auguste Lebourg;47.0808322;2.4069523
Hommage à Charlie Parker;sculpture;Alain Kirili;48.8287794;2.3788436
Cabiottes du Larmont;landart;;46.904104;6.4065494
Faïencerie du Morvan;;;47.180102;4.0938663
Unset;;;48.792421;2.3884605
Cardinal François II de Tournon;statue;;45.0672448;4.834527
;statue;;49.0707726;2.1759313
;sculpture;;48.8553294;2.3640995
;sculpture;E. Magen;47.7769093;1.6302527
Capsulaire f1;sculpture;Claude Viseux;48.7940825;2.4155171
Thémis;sculpture;Jean-Antoine Houdon;48.8623905;2.3185607
Athéna;sculpture;Philippe-Laurent Roland;48.8622313;2.3190542
Henri-François d'Aguesseau - L'unificateur;sculpture;Jean-Joseph Foucou;48.8624839;2.3186317
Jean-Baptiste Colbert - L'organisateur;sculpture;Jacques-Edme Dumont;48.8625247;2.3185027
Maximilien de Sully - Le réformateur;sculpture;Pierre-Nicolas Beauvallet;48.8622849;2.3192509
Michel de L'Hospital - Le conciliateur;sculpture;Louis-Pierre Deseine;48.8623265;2.3191267
La renommée au combat;statue;Pierre Granet;48.8630681;2.3138091
La Renommée de la guerre;statue;Léopold Steiner;48.8630569;2.3131385
La renommée des arts;statue;Emmanuel Frémiet;48.8642502;2.3139283
La Renommée de l'agriculture;statue;Emmanuel Frémiet;48.8642334;2.3132603
Pressoir;;;46.7135832;4.7064356
;statue;;49.0966524;2.1901835
Fontaine Croix-Tournus;architecture;Jean-Pierre Raynaud;45.7146712;4.8016516
Sator Arepo Tenet Opera Rotas;sculpture;;45.1915916;5.7283868
Statue Saint-Vincent de Saragosse;statue;;48.6155379;6.1036514
Evocation;statue;Brigitte Dassonville Delboë;50.5265067;3.1704473
Buste de Marc Seguin;statue;;48.86712;2.3540478
Mercure et la Musique;statue;Auguste Ottin;48.8670465;2.3537266
L'Agriculture et l'Industrie;statue;Charles Gumery;48.8672803;2.3538862
Le Forgeron;mural;PRZYGODZSKY;50.5271501;3.1717475
Templeuve;mural;Alter Ego;50.5311656;3.1752853
Carriole;;;46.8932317;4.7290519
;statue;;46.091113;5.601216
Pressoir;;;46.8723646;4.742942
Street art (unset);;;48.7870092;2.3946226
Galerie Usine en greve - mai 68;;;44.7089226;-0.4014492
;sculpture;;45.1595125;5.7351156
;sculpture;;45.1595451;5.7351722
;sculpture;;45.1595803;5.7351087
Le Lieu-dit;sculpture;Michaël Grossert;42.8308218;3.0415137
L'Atlantique;sculpture;Morice LIPSI;42.8306152;3.0414815
Don Quichotte;sculpture;Michel Guino;42.8280691;3.0412326
Le Lutin;sculpture;Victor Roman;42.8341296;3.0418246
Le Dieu Soleil;;Alicia MOÏ;42.8333769;3.0418114
Jean de La Bruyère;statue;;49.1952332;2.4868904
;statue;;49.1949686;2.4879498
Grand Condé;statue;;49.1951509;2.4874483
Molière;statue;;49.1950454;2.4870662
André Le Nôtre;statue;;49.1949007;2.4876303
Bacchus;statue;;49.1943534;2.4876118
;sculpture;;49.1972014;2.486306
;statue;;49.1946303;2.4865041
;sculpture;;49.1970455;2.4870546
Atelier du patrimoine de la Saintonge;;;45.745606;-0.6339063
photographe;;;48.8474737;2.4763432
lance pierre et cheveaux;;;48.8474507;2.4765886
singe geni et les chats;;;48.8474357;2.4765591
clint;;;48.8473563;2.4765296
Les singes;;;48.8473334;2.4765216
Le retour des pirates;;;48.8475399;2.476649
Nul si recouvert grue tigre;mural;;48.8480182;2.4768299
Cheval bleu et femme verte;;;48.8480687;2.4770093
Vénus Callipyge;sculpture;;49.1975768;2.4818637
Homme au chapeau et hirondelles;;;48.8482833;2.4763012
Femme au chapeau sous l'arbre;;;48.848242;2.475938
Prise de vue;;;48.8482587;2.4760058
Clown;;;48.848809;2.4762583
Vol des cigognes;mural;;48.8488841;2.4763227
Femme coquette;;;48.8488806;2.476586
Équilibre sur une main;mural;;48.8488534;2.4766947
Les oiseaux;;;48.8489838;2.4763753
Rhinocéros bleu;mural;;48.849116;2.4764463
Séance photo d'oiseau;mural;;48.8492073;2.476187
Le rino et le clown;;;48.849206;2.4758506
;sculpture;;43.9828643;4.8597444
Buste de Grandville;statue;;48.6987704;6.1807126
Buste de Sellier;statue;;48.695769;6.1840317
Monument Claude Gellée;statue;;48.6978916;6.1822818
Statue du Gaulois;statue;;48.6976051;6.1833627
;statue;;43.6055365;2.2452578
Denys Auguste Affre;statue;Jean-Auguste Barre;44.3508494;2.57603
Vieux Pressoir;;;46.8360046;4.5874904
;sculpture;;49.0974771;1.4890823
1860;;;45.3797743;6.5048099
Statue allégorique - Industries et Arts Décoratifs;statue;François Truphème;43.5262934;5.4461629
;bust;;49.5408891;0.9531383
;statue;;49.5437579;0.9492753
Louis Ricard;bust;;49.544065;0.9503761
Femme assise;statue;;49.5442093;0.9503625
;bust;;49.5445411;0.9511099
;bust;;49.5458241;0.9586675
La Bienvenue;statue;;49.5459061;0.9519612
Abbé Cochet;bust;;49.5460507;0.9518812
;statue;;49.5461677;0.9546915
Viaduc de Barentin;;;49.5477372;0.9562616
;statue;;49.5512356;0.9536522
;statue;;49.5534003;0.9403422
;statue;;49.5368437;0.9614188
;statue;;49.5465864;0.9525308
;statue;;49.5467624;0.9523247
;statue;;49.5469235;0.9527731
Gustave Flaubert;statue;;49.5479991;0.9540903
Hector Malot;bust;;49.548166;0.9536973
Écluse de l'aiguille;;;43.2295929;2.6059519
;statue;;49.5377454;0.9592383
;bust;;49.5439054;0.9524277
Sainte-Austreberthe;statue;;49.5450545;0.9539604
Flamme Olympique;;;45.3360557;6.5353565
Fontaine Saint-Ivy;;;48.7361831;-3.4842913
Vincent Auriol;bust;;49.5547767;0.9369415
La Tour Eiffel d'Apach;sculpture;;49.4664423;6.3717817
Chevalier de La Barre;sculpture;Emmanuel Ball;48.885999;2.3415729
Statue;statue;;47.2367975;-1.558289
Grande Amapola;sculpture;Cardenas;43.4793161;-1.558721
;sculpture;;43.4795958;-1.5603505
;statue;;48.2981154;4.0781708
;stone;;45.7872548;1.8380751
;stone;;45.7874278;1.8369683
;stone;;45.7876401;1.8365614
;stone;;45.7876774;1.8378427
;stone;;45.7877574;1.8356845
;stone;;45.7888764;1.8330399
;stone;;45.789025;1.8412899
;stone;;45.7895313;1.8413175
Subtiziano;;;45.7995174;1.8626074
PA1209 droite ciné;;;48.8521732;2.3388298
;;Davos Hanich;48.8854168;2.3771081
Légende de Biarritz;statue;Francisco Leiro;43.4805941;-1.5586183
La Joie;statue;Louis Debré;48.0709859;-0.7658212
Statue de Pierre l'Ermite;statue;Gédéon de Forceville;49.8939852;2.3032045
Street Art;mural;;48.7916119;2.3885259
Street Art;mural;;48.7906282;2.3890615
;mural;;48.7933393;2.3960812
Ludovic Trarieux;sculpture;;45.2713898;0.1700449
;statue;;49.5448729;0.9532142
Porteuse d'amphore;statue;;49.5451901;0.9526105
Düo;;;48.8644742;2.3736034
Capitaine Dreyfus;sculpture;Louis Mitelberg dit Tim;48.8447224;2.3290996
;statue;;44.8314463;2.6864338
Louis Leseigneur;bust;;49.5436099;0.9553677
;statue;;49.5323259;0.9685678
;statue;;43.6282705;3.8652444
Statue de la Vierge;statue;;45.8417766;5.0353017
Fusée de Tintin (On a marché sur la lune...);;Eleves chaudornniers de Balleure;46.7875902;4.8359896
Map Monde (globe);;Eleves chaudronniers de Balleure;46.7872634;4.8368655
Alexis Monteil;statue;;44.3538437;2.5750064
La Jeunesse;statue;Marthe Baumel-Schwenck;44.348874;2.5786861
statue de l'Abbé de l'Epée;;;48.7986814;2.1240128
Eugène Viala;statue;;44.3466482;2.5764531
From Boullée to Eternity;sculpture;Dan Graham;48.8326723;2.287655
Deux enfants et un Amour;sculpture;Jean Degoullons. François Aubry. Bonvallet. Roger Scabol. Jean Taubin;48.8051133;2.1196091
Les Encorbellements;sculpture;;45.541896;2.9920379
Statue de Jeanne d'Arc;statue;;46.7485602;5.6698185
Saule et Châtaignier;installation de Land Art;Patrick Dougherty;48.1539909;-3.8007432
Louis Carrel;sculpture;;45.0028075;6.1204981
Monument à Clément Ader;;;48.7922529;2.1179286
;sculpture;;47.4767414;-0.551053
Peinture de la SPa de la Côte Chalonnaise;;;46.7932768;4.8238434
L'arbre écoute;sculpture;Roger Groslon;45.8240028;4.9508697
Buste d'Alphonse Benoit;statue;;43.9175983;5.052202
Hommage à Matisse;;;43.682588;3.8515284
Hippolyte Taine;sculpture;;49.3977297;4.7008255
Paul Drouot;sculpture;;49.397758;4.7002733
;pressoir;;46.8088087;4.6987719
Gisant;statue;Georges Halbout;48.4539505;7.2494974
Le Petit Prince et Saint-Exupery;statue;Christiane Guillaubey;45.7574366;4.82992
Muse de l'artisanat;statue;Hervé Audouard;45.4313851;4.3938808
Avion;;;48.7970672;1.9784389
VRS18 soleil;;;48.8050258;2.1270798
Vierge;statue;;44.9600697;6.1708825
Monument à Louis Français;sculpture;Émile PEYNOT;47.9650821;6.4594395
Assia;;;43.8916084;-0.5015338
Méditation;;;43.8916593;-0.5015693
Jeunesse;;;43.8917221;-0.5016087
Primerose;;;43.8916186;-0.5016911
Fontaine de Neptune;;Vital Gabriel Dubray;42.1028162;9.2108703
Buste de Balzac;statue;;47.7929304;1.0668686
Le Cavalier tombé;statue;Louis Leygue;47.793359;1.0660082
;sculpture;;44.1373739;4.8192953
;sculpture;;43.9509566;4.8197011
Nymphe aux Monstres Marins;sculpture;;48.8051772;2.1193681
Nymphe aux Oiseaux;sculpture;Legros;48.805243;2.1191198
Groupe d'Enfants;sculpture;;48.8053082;2.1188738
Groupe d'Enfants;sculpture;;48.8054275;2.1198012
Nymphe à la Carte;sculpture;Magnier;48.8054913;2.1195595
Nymphe;sculpture;;48.8055582;2.1193064
Groupe d'Enfants;sculpture;;48.8056203;2.1190714
L'Envol;statue;Paul Landowski (sculpteur) et Paul Bigot (architecte);48.0011703;0.1896027
Lapidation de Saint-Etienne;statue;Robert Barillot;50.3626122;3.5251114
Marie;statue;;44.2897398;2.6053481
Saint-Pierre;statue;;44.2897065;2.6055271
Fontaine Wallace;;Charles-Auguste Lebourg;45.777852;3.0822522
Vierge Marie;statue;;44.1350183;4.808627
;painting;;43.9509278;4.8150992
;graffiti;;43.9547543;4.8235687
Vincentello d'Istria;statue;;42.6287285;9.4375119
;sculpture;;42.7021826;9.4525047
François Fabié;sculpture;Marc Robert;44.3489288;2.5715491
Statue de la Vierge;statue;;43.8932684;3.5101582
Fresque;painting;;43.9514553;4.8161086
Statue de la République Française. dite Marianne;statue;;48.8776852;2.1816154
Route du Patois;poster;Sérusier;50.4246917;2.5858552
karé;sculpture;Jean-Michel Debilly;45.9908227;4.7218099
;paint;;42.3754246;9.5302872
Improvisations Tellem;installation;Alain Kirili;47.3137934;5.0656384
Nymphée;statue;;43.8400076;4.3494854
Espace29;;;44.8405845;-0.5843514
;sculpture;;46.942303;4.7596311
Arc de 115°5;;Bernar Venet;43.6964383;7.2688612
;painting;;43.9463314;4.8093763
Statue de Masséna;statue;;43.6979483;7.2736075
La Vierge;;;44.9687289;2.1893922
Statue de Léon Gambetta;statue;Aubé;48.8659373;2.3999302
Solidarno?? Vivant;;;45.1847003;5.7258418
"""Rose Roc""";sculpture;Pierre Nicouleau;43.392948;3.6843033
Le réservoir d'air;installation;Vincent Prud'homme;47.8462163;1.9170011
Statue de Neptune;;;45.7762742;3.0837938
Centre Regional d'Art Contemporain;;;43.3989634;3.6981208
Le Poulet de Bresse;statue;;46.4253015;5.098561
Statue de Bela Bartok;statue;Imre Varga;48.8509738;2.2857224
Horizons suspendus;sculpture;Dominique Labauvie;48.8853414;2.3722088
;sculpture;;48.8841155;2.3692415
Libertad;statue;Claude Quiesse;49.2703462;-0.6970112
;statue;;49.2727384;5.1416521
;statue;Maxime Real del Sarte;49.2185151;4.5420461
;mural;;44.3247854;3.593328
Anti-Robot;sculpture;Karel Appel;47.3156642;5.066871
PA1037 petipoto;;;48.8259941;2.357048
Après le Concert;;;48.7320714;7.0589326
Henri Ginoux;bust;;48.8181204;2.3226231
Statue de la Liberté;statue;Frédéric Auguste Bartholdi;48.8463756;2.3331506
;;Sandor Kiss;48.6839648;6.221709
Monument Planchon;sculpture;;43.6058312;3.8799206
;statue;;43.9833183;4.6968584
;statue;;43.9833525;4.6969055
;statue;;43.9679879;4.6741671
Édicule Guimard;;Hector Guimard;48.8308087;2.3554274
;statue;;43.9445779;4.8067062
Li Sounjarello;bust;;43.9445003;4.8064093
;statue;;43.9446975;4.806732
;statue;;43.9446334;4.8067477
;sculpture;;43.9442946;4.8065893
;statue;;43.9447528;4.8066875
Théodore Aubanel;bust;;43.9448605;4.8064522
;sculpture;;43.9446793;4.8061361
;sculpture;;48.8561477;2.3433101
;sculpture;;48.8561981;2.3433497
;sculpture;;48.8562461;2.3433884
;sculpture;;48.8563448;2.3434673
;sculpture;;48.8563944;2.3435063
;sculpture;;48.8564406;2.3435433
;sculpture;Yann Lestrat;48.1047198;-1.6738455
;sculpture;;48.8525527;2.3031396
;sculpture;;48.8525805;2.3031796
;sculpture;;48.8527008;2.3033561
;sculpture;;48.8527291;2.3033971
;sculpture;;48.3368016;2.6965844
;sculpture;;48.3420098;2.6959931
Anne;sculpture;Patrice Le Guen;48.3714374;-3.5421574
Statue du Millénaire capétien;statue;;43.9518555;4.8077643
Le Bleu des toiles;;;48.4898051;7.6817343
;mural;;48.9145148;2.2284925
L'Abre Oublié;sculpture;Ouvriers Usinor Trith;50.3516833;3.5224663
Charles Esprit Le Terme;statue;;45.8206836;-1.1100712
Galerie d'Exposition;;;45.8230309;-1.1070422
Statue de Bernard Palissy;statue;Louis-Ernest Barrias;48.8287458;2.2233472
HV11;sculpture;Nicolas Sanhes;50.3540209;3.5295616
Le joueur de billes;statue;Elie Raset;50.3528403;3.5272901
Cadran Solaire;sculpture;Yves Saget;44.3528305;2.5781491
Deux arcs de 201.55°;sculpture;Bernar Venet;45.7582802;5.7055091
Guillotine pour huit;sculpture;Alexander Calder;50.6367846;3.1492004
Reims Croix du sud;sculpture;Alexander Calder;50.6366637;3.1525242
Groupe de 3 personnages;sculpture;Eugène Dodeigne;50.6366174;3.1520546
;statue;;46.0640448;5.0706981
;statue;;45.8522952;4.87258
;sculpture;Jean-Baptiste Larrivé;45.740995;4.8824381
;statue;;45.8778634;4.9687203
;sculpture;;46.6783726;2.8247381
Monument aux Morts 1914-1918;sculpture;;45.0686815;4.831778
La Muse de Massenet;statue;Joseph Lamberton;45.4372464;4.3903353
Marc Seguin;statue;;45.0709908;4.8290098
;sculpture;;46.6762903;2.7959682
Le Poulet de Bresse;statue;Jean Brisé;46.4956568;5.3147688
;sculpture;;47.6164048;3.4045071
Épi d'or;mosaic;;48.7936921;2.0759649
;sculpture;;45.8518175;5.056707
Vierge;statue;;43.8281466;3.6163329
Vierge;sculpture;;45.0679193;4.830948
Une fontaine;sculpture;Claudio Parmiggiani;48.1109192;-1.6780031
Mur d'eau;sculpture;Marta Pan;48.1129409;-1.6736185
Truck;sculpture;Erwin Wurm;45.7842713;4.8521056
Le Livreur de Pizza;sculpture;Xavier Veilhan;45.7849189;4.8539087
Le Coq;sculpture;Louis Hargé;45.8153666;5.0211067
La Métallurgie;statue;Étienne Montagny;45.4397145;4.3872335
La Rubanerie;statue;Étienne Montagny;45.4397662;4.3875958
Anciennes Stèles;;;48.3420047;-0.2832811
Entrée de Ville Saint-Nicolas;;;48.3460032;-0.2778085
Entrée de Ville du Bignon;;;48.3439005;-0.2726168
Galaxie;;;48.3449185;-0.2748067
Horloge;;;48.345264;-0.2764485
L'Orbite;;;48.3449409;-0.2750819
Pierre Taillée;;;48.3420493;-0.283216
Fontaine Wallace;fontaine Wallace;Charles-Auguste Lebourg;43.3478138;5.359193
;sculpture;;46.6652537;2.7651472
;sculpture;;46.6655717;2.7654697
Le Gardien;sculpture;Gloria Friedmann;48.5792502;2.5428681
Pyramide;sculpture;;49.3575725;6.1369392
À la mémoire de Francis Garnier;statue;Biaggi;45.4332632;4.398371
;mural;DEXUN;47.6871959;6.5080858
;sculpture;;46.6653734;2.7657124
;painting;;48.6845561;6.2143595
;sculpture;;46.6952772;5.5744723
La Cascade de Beynost;sculpture;Pino Castagna;45.8215797;4.9968051
buste de Jean-Jacques Courtaud-Diverneresse;statue;;45.8835633;2.1732589
L'Égyptienne;statue;Mathurin Moreau;45.431274;4.3878161
Buste de Jean Moulin;statue;André Longeon;45.4375816;4.3923593
Monument de la Guerre d'Arménie;sculpture;Toros;45.4322529;4.3904545
Le Requin;;François Melin;48.5928401;2.4469249
Alambic;industriel;;50.6878368;3.051617
"Château d'eau ""La Drome""";mural;7e-sens;45.2947957;4.8252328
;sculpture;Lovato;45.7351352;3.9716951
Rêve-désir;statue;;48.7998884;2.3805857
Rêve-désir;statue;;48.800076;2.3806215
;mural;;48.8013456;2.3789682
Colonne à la Vie;sculpture;Jean-Claude Galland. Carmelo Zagari et les enfants;45.7369829;3.9684824
Fontaine du Palmier;statue;"Louis BOIZOT; Henri-Alfred JACQUEMART";48.8575003;2.3472865
La Mazotte;sculpture;Jo Ciesla;45.7521741;3.9689183
Statue Jeanne d'Arc;statue;;49.4207137;2.8225693
Sphère-lumière;sculpture;SKODA Wladimir;48.8125175;2.3859874
Woman Walking to the Sky;sculpture;Jonathan Borofsky;48.5855509;7.7422819
Taureau et Daim;sculpture;Paul Jouve;48.8614443;2.2892128
L'Homme;sculpture;Pierre Traverse;48.8615587;2.2891173
Chevaux et Chien;sculpture;Georges Guyot;48.8616527;2.2895251
La Femme;sculpture;Daniel Bacqué;48.8617122;2.2893496
;sculpture;Laurence Jenkell;48.8736024;2.2967679
Être;sculpture;Louis Molinari;45.7577191;4.8534844
Avion;statue;;48.932624;2.2308328
;sculpture;;46.6528831;2.7585669
Statue de la vierge avec console sculptée;sculpture;;47.9081952;7.2125947
Vierge;statue;;43.5787037;3.3657928
Aux Artisans Bourguignons de la Pierre et du Vin;statue;Pierre Vigoureux;47.0391212;4.815615
;statue;;43.3218588;1.7106714
Foc de Mar;;;43.1896155;2.9850974
;sculpture;;45.4399219;4.3804021
L'Enlèvement d'Eurydice;statue;Charles Lenoir;48.1149403;-1.6700632
La Chasse de Diane;statue;Charles Lenoir;48.1149725;-1.6680301
Statue des Moussous;statue;;44.6282107;3.0002796
Tête sculptée dans une alcove murale;sculpture;;43.5410859;2.9763901
;statue;;48.8660207;2.3165762
;statue;;48.866035;2.3165868
;statue;;48.8660493;2.3165975
;statue;;48.8660636;2.3166082
Navigateurs et géographes (Guillaume Le Testu. Dubocage de Bléville. Marcel Hérubel. d’Après de Mannevillette);sculpture;Pierre Colombo;49.4930755;0.102347
;sculpture;;43.9465154;4.8057999
;sculpture;;43.1218508;6.0735424
;sculpture;;46.64775;2.68141
La Cigale;;Pasquier;43.4727739;5.8149515
Statue de Neptune;statue;;48.8702095;2.1661583
Shake Hands;sculpture;Bruno Maillard;50.7265716;1.5998267
;statue;;49.3575104;2.7178519
Minerve casquée de Samos;sculpture;;46.7930494;-1.0164191
La Tortue;sculpture;Ivan Theimer;44.8309124;-0.5726508
Jeanne D'Arc;statue;;43.922359;2.1421452
;statue;;43.1888732;2.9231425
La Victoire;statue;Paul Graf;45.438556;4.3764061
;statue;;43.9982489;0.7560977
Lunar Tree;sculpture;Mrzyk et Moriceau;47.200718;-1.5786298
Arrivée des acadiens en Louisiane;mural;Robert Dafford;47.2021743;-1.5779282
Départ des exilés acadiens pour la Nouvelle-Orléans;mural;Robert Dafford;47.2022629;-1.577808
Fresque du PLM (Paris-Lyon-Marseille);mural;;44.5352686;5.8261649
Statue de Jean-Philippe Rameau;statue;;47.3280214;5.0498912
Cartouche;sculpture;Marion Verboom;48.92436;5.390796
Entrelacs;;François Génot;48.9246837;5.3626866
Racines;sculpture;Katarina Kudelova;48.9281748;5.3900874
Saphira;;Claudia Comte;48.9158645;5.4005316
One of those who were too long in the woods;statue;Stefan Rinck;48.926767;5.390408
;statue;;43.6965449;2.0291765
Fléchier;sculpture;;48.850863;2.3332383
Bossuet;sculpture;;48.8508937;2.3332666
Fénelon;sculpture;;48.8508714;2.3333185
Massillon;sculpture;;48.8508402;2.3332818
Deux Chevaux;;;45.7745753;3.1791179
Gimme Shelter;sculpture;Nathalie Talec;45.4503674;4.3842939
;sculpture;;45.4782781;4.0451181
Grand Pingouin;sculpture;Xavier Veilhan;45.7831261;4.8498877
Jeune Fille en roller;sculpture;Xavier Veilhan;45.7837953;4.8511552
Expositions d'œuvres contemporaines;;;51.0480377;2.3759494
Sculpture de la Vierge;sculpture;;45.9049085;5.1910357
Buste du Général Messimy;;;45.9002834;5.1877971
Meximieux à ses Enfants héroïques et illustres;sculpture;H.Collomb;45.9037511;5.1927023
Le Chat;sculpture;;48.846794;2.4085419
Souvenir Unité Paix;sculpture;Georges Salendre;45.772911;4.8052919
;statue;;44.3691819;4.6452525
;figurine;;44.3700832;4.6438914
;figurine;;44.3700947;4.6464903
;figurine;;44.3712575;4.6457875
Le Stabile;;Marias Spescha;43.1794836;3.015446
;statue;;49.3664297;3.3104841
;sculpture;;45.8358333;4.9759399
;statue;;47.4698683;-0.5451326
;statue;;47.4701633;-0.5449241
;statue;;47.4708505;-0.5465422
;statue;;47.4707605;-0.5462733
Monument aux morts;statue;;47.4710805;-0.5444329
;statue;;48.7993657;2.2918929
La Liberté guidant le peuple;painting;Eugène Delacroix;45.1483182;5.7174017
Naïade;;;43.1848101;2.9793176
;statue;;43.4896638;3.6708997
La boutique des artisans d'art;;;44.0355285;4.9966044
Monstre de Saint-Cyprien;;;44.5618828;2.3952895
Madame de Hirsch;sculpture;;48.851542;2.3264427
La Fleur de Feu;sculpture;Igor Lukic;43.6570386;6.9214177
Vue de Grasse;painting;Raoul Dufy;43.6568748;6.9205047
Balzac;sculpture;Rodin;48.855418;2.3153205
Jean de Fiennes;sculpture;Rodin;48.8547554;2.3162293
Eustache de Saint-Pierre;sculpture;Rodin;48.8548619;2.3164438
Jacques de Wissant;sculpture;Rodin;48.8542592;2.316311
Jules Bastien-Lepage;sculpture;Rodin;48.8546603;2.3163888
Andrieu d'Andres;sculpture;Rodin;48.854437;2.3161675
Orphée;sculpture;Rodin;48.8543053;2.3157748
;stained glass;;50.1091044;1.8373237
Star Fountain;statue;Niki de Saint-Phalle;47.8366422;7.1734898
Toupies d'Eau;sculpture;Ilana Isehayek;47.8365677;7.1738655
Wall Piercing;sculpture;Clément Borderie;47.8367467;7.1739816
17 sphères dans une sphère;sculpture;Pol Bury;47.8366073;7.1740417
Francisco de Goya;statue;Mariano Benlliure;44.8428666;-0.5763708
;sculpture;;48.9045685;2.4500594
;sculpture;;48.9045709;2.4497844
;sculpture;;48.9046554;2.4498329
Cadran Solaire du Croisic;sculpture;;47.2989812;-2.5168286
Canon;sculpture;;47.298897;-2.516672
Frédéric Bastiat;statue;;43.7505454;-0.7496816
Croix Catelan;;;48.8665976;2.2542143
;sculpture;;47.6478506;6.8749944
;statue;Jean-Marc De Pas;49.7315591;1.2761947
;sculpture;;45.2546764;5.0241617
;sculpture;;45.2551438;5.0256401
Le messager;;;48.8628277;2.3099141
Pyramide du centenaire;sculpture;Kate Blacker;45.6838568;4.8466875
PA487 resto japonaia;;;48.8478589;2.3407967
Général Jean-Joseph Tarayre;;;44.3565479;2.5770925
Les 4 départements;sculpture;Antoine Sartorio;43.6887398;5.667152
;sculpture;;48.0680879;6.867555
Sanna by Jaume Plensa;sculpture;Jaume Plensa;44.842144;-0.5743107
;sculpture;Martine Kerbaol;48.1257584;-1.686923
Le Rhinocéros;statue;;47.3895536;0.6926707
Vierge de Belleville;statue;;48.8139179;6.0885102
sculptures naturelles sur bois;sculpture;;45.4530054;4.6535325
Vision_Ulla Reimer;;;44.1047278;4.7590574
Saint-François de Sales;statue;;46.2736795;6.488081
Statue de Blaise Pascal;statue;;45.7803376;3.084671
Buste de Francisque Allombert;statue;Muscat;46.0804822;5.4658725
Monument des maquis de l'Ain;sculpture;Charles Machet;46.0711675;5.4842724
Cardinal Richelieu;statue;;43.9496775;4.8057043
Molière;statue;;43.9497803;4.8057049
Cadran solaire Fond Cheynet;;;45.0532828;4.7300194
Rex;;;48.8670427;2.7764633
;sculpture;;48.5856601;7.7519565
;sculpture;;48.5856859;7.7519313
;sculpture;;48.5857119;7.7519055
;sculpture;;48.5857382;7.7518799
;sculpture;;48.585764;7.751854
;sculpture;;48.5857901;7.7518283
Guitare Géante citation AC/DC;sculpture;Jean-François BUISSON;47.0970228;-1.2717999
Colonne de la liberté;;;44.3516395;2.5669218
La Maternité;sculpture;Jean-Louis Toutain;43.6047776;1.4450255
Pont Dunlop;;;47.9577537;0.2124001
La Science;statue;;45.5683054;5.9193349
Antoine Favre;statue;;45.5682359;5.9192544
La Jurisprudence;statue;;45.5681608;5.919182
Colonne Saint-Éloi;architecture;;43.626655;3.8664418
Lightning McQueen;sculpture;;48.8678621;2.7782089
Mater;sculpture;;48.8678471;2.7782336
Girafe;sculpture;;45.9983607;4.9037929
Le Tour de France dans les Pyrénées;sculpture;Jean-Bernard Métais;43.2305194;-0.0783243
Statue du Général Poeymirau;statue;;43.3027971;-0.3523758
;statue;;48.6948078;2.1582992
Rosa Bonheur;statue;Gaston Veuvenot Leroux;44.8478105;-0.5793156
Monument de Jean Fernand Lafargue;statue;Jules Rispal;44.848175;-0.5787724
Pierre d’heures;sculpture;Christian Renonciat;49.2510573;4.0350879
Le Joueur de Flûte de Pan;statue;Alphonse Terroir;50.3551713;3.5214349
Frères De Masitre;statue;;45.5646128;5.9190551
L'arche;architecture;Piotr Kowalski;48.7898729;2.0358107
Saint-Antoine de Padoue;statue;;45.1464035;1.5340374
;statue;;45.1455824;1.5317523
De l'en-dessous;sculpture;Michel Gérard;46.1978834;5.2372205
Philibert et Marguerite;sculpture;Richard Serra;46.1972703;5.2361455
;sculpture;Ulrich Rückriem;46.1975316;5.2368646
Chuuuttt !!!;mural;Jef Aérosol;48.8592935;2.3509403
La Pomone;sculpture;"Jean-Charles Lallement ""Bacchus""";43.5411718;4.1343885
Charles De Gaulle;statue;Maurice Brageu;50.3598832;3.5245308
Triptolème;statue;René Leleu;50.3586636;3.5260432
Le couple;sculpture;Eugène Dodeigne;50.3592023;3.522832
Notre-Dame de Trayon;statue;;46.2196715;3.7318313
Croix Vernay avec la Vierge;statue;;45.9016487;5.181386
Mémorial aux flotteurs;;Robert Pouyaud;47.4598449;3.5233442
Mémorial du maquis Clamecy-Varzy-Corbigny;;;47.4613503;3.5206216
Statue de Tartarin et de son créateur Alphonse Daudet;statue;Christiane Chamand-Debenest;43.8049489;4.6575547
Monument à Edgar Quinet;sculpture;Marcel Mayer;46.2032026;5.2204079
Totem;sculpture;Jean-Charles de Castelbajac;48.8919422;2.2214403
Deux Pingouins;sculpture;Xavier Veilhan;45.7851944;4.855864
Homme au téléphone;sculpture;Xavier Veilhan;45.7853129;4.8575233
Ours;sculpture;Xavier Veilhan;45.7856119;4.8545448
Birnam;sculpture;Jaume Plensa;45.7839733;4.8524159
Great Circle Dome;sculpture;Richard Buckminster Fuller;45.7840461;4.8529806
Lyon Asymmetrisch;sculpture;Per Kirkeby;45.7840283;4.852599
World Markets;sculpture;Wang Du;45.7841304;4.8532624
Tête de Mouflon;sculpture;;43.6110841;2.9740408
Mural de la Grande Vadrouille;"mural;painting";Patrick Bidaux;47.0241257;4.8413985
Pacha Mama;sculpture;VANARSKY Jack;48.813951;2.380481
Robert-Louis Stevenson;;;44.9392519;3.9943277
;sculpture;;45.8396935;5.0009964
Le Signal;sculpture;Marta Pan;48.6185263;2.4137102
Le Soleil de Langres;sculpture;Louis Leygue;47.882595;5.2212581
;sculpture;;45.9229735;5.2963663
L'Ephèbe d'Agde;;;43.2964654;3.4708353
Le Rocher du Cerf;statue;;45.8996349;6.7068111
Statue d'Alexandre Dumas;;;49.254442;3.0906747
L'air;statue;;48.772275;2.2892308
La Gloire des Princes;statue;;48.772715;2.2882362
La Magnanimité;statue;;48.7723436;2.2883624
Le Point du Jour;statue;;48.7730553;2.2890224
;sculpture;;48.7611112;1.6572892
Mirabeau;sculpture;;48.0016113;2.7347575
Monsieur Maitre;sculpture;;47.9996274;2.7333948
Instants;sculpture;Milène Guermont;49.4157841;-1.1749566
;sculpture;;45.7454086;4.8483974
Statue de Saint-Louis;statue;;49.4018341;2.3232046
La Moisson;statue;;48.8820254;2.3930627
;sculpture;;45.7199913;3.0177843
Légende de la ville d'Ys;sculpture;;48.2460957;-4.3165034
Troncs coupés;sculpture;;42.6227505;3.0203153
Alain-René Lesage;statue;;47.6508945;-2.7584472
;statue;;43.2444449;2.8942111
Le Marché Sculpté;sculpture;;48.772162;-3.5181963
Tour d'Ain;sculpture;Nicolas Schöffer;46.0688715;5.3283854
;painting;;48.8962594;2.2234079
Mosaique;mosaic;;48.8937935;2.1950426
;statue;;48.6974045;2.2331243
Buste de Louis Bouilhet;statue;;49.788198;0.6346415
;cross;;49.7881227;0.6348264
;statue;;49.7882099;0.6344353
Le Pêcheur;sculpture;Gil Orengo;43.5256689;3.9353765
Neptune;sculpture;;43.5283186;3.928776
;statue;;49.6552273;3.3113253
Patrick;sculpture;Jacques Dumas;48.3702908;-3.5426098
Riom;sculpture;Christophe Antoine dit Kito;48.3703973;-3.5406313
Herbot;sculpture;Bruno Panas;48.370523;-3.5424766
Patern;sculpture;Olivier Lévêque;48.3705757;-3.5403395
Carantec;sculpture;Norbert le Gall;48.370656;-3.5427034
Corentin;sculpture;Seenu Shanmugam;48.3706622;-3.5409677
Hervé;sculpture;Jacques Dumas;48.3707767;-3.5425295
Tugdual;sculpture;Olivier Lévêque;48.3708556;-3.540984
Samson;sculpture;Jacques Dumas;48.3708509;-3.5401384
Idy;sculpture;Patrice Le Guen & Inès Ferreira;48.3709639;-3.5425737
Malo;sculpture;Patrice Le Guen;48.3709613;-3.5401933
Pol Aurélien;sculpture;David Puech;48.3710015;-3.5408711
Brieuc;sculpture;Fabrice Lentz;48.3710533;-3.540322
Guirec;sculpture;Seenu Shanmugam;48.3710858;-3.5424584
Thélo;sculpture;Bruno Panas;48.3711736;-3.5422049
Nolwenn;sculpture;Patrice Le Guen;48.3714755;-3.5411689
Du;sculpture;Olivier Lévêque;48.3714501;-3.5414592
Gildas;sculpture;David Puech;48.3715502;-3.5410357
Coupaia;sculpture;Patrice Le Guen;48.3688853;-3.5412361
Efflam;sculpture;Seenu Shanmugam;48.3691457;-3.5416672
Miliau;sculpture;Norbert le Gall;48.3691419;-3.5419959
Tremeur;sculpture;David Puech;48.3692365;-3.5412414
Tudy;sculpture;Goulven Jaouen;48.3694595;-3.5414546
Conogan;sculpture;Olivier Lévêque;48.3695046;-3.5422426
Brigitte;sculpture;Jacques Dumas;48.3695589;-3.5416636
Caduan;sculpture;Seenu Shanmugam;48.3695814;-3.5411413
Winoc;sculpture;Seenu Shanmugam;48.3696535;-3.5402767
Emilion;sculpture;David Puech;48.369812;-3.5405248
Derrien;sculpture;Goulven Jaouen & Inès Ferreira;48.36984;-3.5420902
Merec;sculpture;Christophe Antoine dit Kito;48.3699733;-3.5418946
Hernin;sculpture;Seenu Shanmugam;48.3699674;-3.5425434
Lunaire;sculpture;Olivier Lévêque;48.3700222;-3.5408308
Cornely;sculpture;Goulven Jaouen;48.3700236;-3.5415011
Thurien;sculpture;Philippe Leost;48.3700905;-3.5420349
Ronan;sculpture;Philippe Leost;48.3700915;-3.5412231
Clair;sculpture;David Puech;48.3702026;-3.5422482
Diboan;sculpture;Olivier Lévêque;48.3702675;-3.5418062
Cado;sculpture;Jacques Dumas;48.3703085;-3.5409515
Keo;sculpture;Jacques Dumas;48.3705481;-3.542097
Tugen;sculpture;Inès Ferreira;48.3705249;-3.5417343
Tudec;sculpture;Xavier Tanguy;48.3707721;-3.5422375
Gwenn;sculpture;Patrice Le Guen;48.3711463;-3.5414628
;sculpture;;48.5732058;7.7551779
Tonneau;sculpture;;48.5803553;7.7491279
;sculpture;;48.5784038;7.7625371
LC;;;46.829581;4.7132853
Monument aux Morts 1914-1918;statue;;47.4398392;-1.4964608
Saint-Georges terrassant le dragon;statue;;47.4398973;-1.4945325
Civel expo;;;47.8573751;-3.7476074
galerie;;;47.8564429;-3.7479588
Galerie La Source;;;47.8561907;-3.7458843
galerie Kerbiriou;;;47.8563293;-3.7458252
galerie Daniel Convenant;;;47.8562141;-3.7458252
Galerie Patrice Cudennec;;;47.8562483;-3.7457448
galerie Dominique C;;;47.8562717;-3.745659
galerie Le temps du Reve;;;47.8563797;-3.7457206
Atelier Jean Fontan;;;47.8563689;-3.7454308
Galerie A Tempera;;;47.8564013;-3.745329
galerie Pigments & Matieres;;;47.8565669;-3.7449777
Galerie Monget & Daniel Convenant;;;47.8565345;-3.7453612
Atelier Gabrielle;;;47.8566208;-3.7448838
galerie J.Y. Blecon;;;47.856808;-3.7448677
La Vache;;;48.6844149;2.2256206
;sculpture;;48.5864303;7.7542502
Vierge Notre-Dame-des-Champs;statue;;43.5397922;3.4990846
;;Apel Les Fenosa;45.9302453;1.0346284
Saint-Yves;statue;;48.7877116;-3.2310031
;statue;;42.71656;1.8387481
Statue de Cérès;statue;;48.7285363;2.2913078
Fresques;painting;Juliette Leroux;48.8949363;2.2275822
Notre-Dame-de-Boulogne;statue;Jean Freour;47.4386615;-1.4958587
Grue;;;48.5742838;7.7583886
Grue;;;48.5742711;7.7586211
;mural;;48.7910119;2.284428
La maison de celle qui peint;;Danielle Jacqui;43.3268765;5.5960324
Statue de la Vierge Marie;statue;;45.8210142;4.9309757
;statue;;49.0484617;7.7195623
;sculpture;;44.9875132;1.7237497
;sculpture;;44.7564543;2.5736083
;sculpture;;44.7582383;2.574454
;sculpture;;44.7541991;2.5727395
;sculpture;;44.7550251;2.5745608
;sculpture;;44.7553548;2.5752094
;sculpture;;44.7571954;2.5759765
;sculpture;;44.7588051;2.5755631
;sculpture;;44.7599259;2.5746734
;sculpture;;44.7601702;2.5743165
Le Soleil Noir;sculpture;François Cante-Pacos;46.1548393;-1.1534667
Claude Bernard;statue;;45.750932;4.8367143
Barthélemy Thimonnier. inventeur de la machine à coudre;statue;;45.7532772;4.850116
;graffiti;C215;47.7515799;7.3337084
Calvaire d'Arfeuilles;statue;;46.1624343;3.7451752
;sculpture;;44.0789;6.2108345
;sculpture;;44.0789079;6.2111856
;sculpture;Endro Cipollini;44.0907835;6.2314427
Luís de Camões;statue;Clara Menerès;48.8593971;2.2870615
;statue;;48.6135659;2.481459
Stalagmite;;;43.6961235;3.505066
Baleine;sculpture;Emmanuel Janssens Casteels;44.6658077;-1.1660651
Vent Debout;sculpture;Dominique Thollon;43.5563514;4.0863019
;sculpture;Joséphine Chevry;43.5561309;4.0927312
Séréna;statue;José Bonhomme;43.5597935;4.0830281
;sculpture;;46.0393818;5.3147977
;sculpture;;46.0410154;5.3171513
;statue;;48.7675085;2.279986
Route du Patois;poster;Sérusier;50.4240238;2.5864685
Route du Patois;poster;Sérusier;50.4374546;2.5590028
Route du Patois;poster;Sérusier;50.4390263;2.5566335
Route du Patois;poster;Sérusier;50.4499617;2.542511
Route du Patois;poster;Sérusier;50.4507138;2.5414873
Route du Patois;poster;Sérusier;50.4517554;2.538752
Route du Patois;poster;Sérusier;50.4522485;2.537003
Route du Patois;poster;Sérusier;50.4522679;2.5368921
Statue de Notre-Dame-du-Bâtiment;statue;;45.777873;1.9970138
;sculpture;;43.4445119;6.6363661
;sculpture;;43.4455243;6.6376908
;sculpture;;43.4423552;6.6371703
;statue;;43.4442908;6.6363231
Vierge;statue;;43.9112603;7.2310786
Lézard;mural;;43.917053;7.2473706
Libellule;mural;;43.9171164;7.2476744
Statue de Tigre;statue;;44.0155733;7.3203901
Pietà;sculpture;;48.4963019;4.7009148
;statue;;45.5944071;5.9065299
;statue;;47.9978069;-2.1441554
AIX_01;mural;Invader;43.5280686;5.4456013
Statue de Pierre Joigneaux;statue;Mathurin Moreau;47.025292;4.8343141
Statue de Mendès-France;statue;;43.6275754;3.429321
Jeanne d'Arc;statue;Emmanuel Frémiet;50.6260203;3.0648866
Saint-Coeur;statue;;46.5018093;-1.4262065
Un arbre. la forêt…..;sculpture;Éric Fonteneau;47.2146204;-1.5509154
Scheurer-Kestner;statue;Aimé Jules Dalou;48.8464827;2.337178
Valentine de Milan;statue;Victor Huguenin;48.8463905;2.336363
Vulcain;statue;Charles Antoine Bridan;48.8468373;2.3383585
Ludwig Van Beethoven;statue;Emile Antoine Bourdelle;48.8484058;2.3331309
L'acteur Grec;statue;Baron Charles Arthur Bourgeois;48.8478277;2.3386193
Gustave Flaubert;statue;Jean-Baptiste Clesinger;48.8461568;2.3395031
Blanche de Castille;statue;Augustin Dumont;48.8468103;2.3357216
Calliope;statue;Fernando Pelliccia;48.8469497;2.3383654
Pierre Mendès France;statue;Pierre Peignot;48.8452592;2.335483
Diane à la biche;statue;;48.8460248;2.3371345
Le Poète;statue;Ossip Zadkine;48.8453853;2.3338576
Le Faune dansant;statue;Eugène Louis Lequesne;48.847572;2.3398104
Henri Mürger;statue;Théophile-Henri Bouillon;48.8486617;2.3387029
Jeanne d'Albret;statue;Jean-Louis Brian;48.8463893;2.3380952
Leconte de Lisle;statue;Denys Puech;48.8471771;2.3396184
Marie de Médicis;statue;Louis-Denis Caillouette;48.8460317;2.3363506
Sainte-Clotilde;statue;Jean-Baptiste Klagmann;48.84763;2.3363291
La Famille d'Adam;statue;;48.8482859;2.3387102
Laure de Noves;statue;Auguste Louis Marie Ottin;48.8458405;2.3363422
Le Play;statue;André Joseph Allar;48.8453389;2.3363948
Comtesse de Ségur;statue;Jean Boucher;48.8452522;2.3349253
Anne d'Autriche;statue;Joseph Marius Ramus;48.847174;2.3358116
Anne de Beaujeu;statue;Jacques Edouard Gatteaux;48.8465457;2.3359815
Anne de Bretagne;statue;Jean Debay;48.8474602;2.3362581
David;statue;;48.8468948;2.3379724
Marguerite de Provence;statue;Honoré Jean-Aristide Husson;48.8475098;2.336332
Marguerite d'Angoulême;statue;Joseph Stanislas Lescorne;48.8462227;2.3363586
Marius dans les ruines de Carthage;statue;Nicolas Victor Vilain;48.8472487;2.3378717
Minerve;statue;;48.8472888;2.3365645
Louis Ratisbonne;statue;Emile Soldi;48.8452328;2.3345444
Velléda;statue;Hippolyte Maindron;48.8461491;2.3397418
Venus;statue;;48.8469368;2.3364299
Sainte-Suzanne;statue;;48.8481196;2.3378528
Stefan Zweig;statue;;48.8482506;2.3335248
Frédéric Chopin;bust;Georges Dubois;48.8458453;2.3334542
Junon. Reine du Ciel;statue;;48.8470651;2.3360769
La Peinture;statue;Jules Franceschi;48.8482359;2.3348481
Le cri. l'écrit;statue;Fabrice Hyber;48.8461976;2.3390678
Monument à Watteau;statue;Henri-Désiré Gauquié;48.8452779;2.3342747
Étudiants morts dans la Résistance;statue;Gaston Clotaire Watkin;48.84838;2.3387323
Femme aux Pommes;statue;Jean Terzieff;48.8479651;2.338155
Flore;statue;;48.8465801;2.3366578
Le Marchand de Masques;statue;Zacharie Astruc;48.8462365;2.3381946
Les Trois Grâces;statue;Mme Baumel-Schwenck;48.848545;2.3350368
Phidias;statue;Aimé Millet;48.848253;2.3339623
Flore;statue;;48.8465553;2.337687
Femme se regardant dans un miroir;statue;Ludwig Georges Matrai;48.8487703;2.3343787
Flore;statue;;48.8487193;2.3360063
Il Dispetto;statue;Jean Valette;48.8471942;2.3399558
Le Silence;statue;Berthelot;48.8485213;2.3381164
Léda et son Cygne;statue;Valois;48.8480579;2.3393487
Polyphème surprenant Acis et Galatée;statue;;48.8480576;2.3393049
Psyché sous l'emprise du mystère;statue;Mme Léon Bertaux;48.8481196;2.3366169
Vénus au Dauphin;statue;;48.8468364;2.3360638
;sculpture;;49.8963563;2.3014154
Les Volutes;sculpture;;43.8716582;5.7947548
L'écoutoir;sculpture;;43.8716629;5.7930548
Aigle romaine;;;45.5460892;2.3073218
